[{"prefecture":"北海道","city":"札幌市中央区","latitude":43.04223,"longitude":141.319722},{"prefecture":"北海道","city":"札幌市北区","latitude":43.157077,"longitude":141.39018},{"prefecture":"北海道","city":"札幌市東区","latitude":43.069887,"longitude":141.394781},{"prefecture":"北海道","city":"札幌市白石区","latitude":43.046881,"longitude":141.39899},{"prefecture":"北海道","city":"札幌市豊平区","latitude":43.049506,"longitude":141.365176},{"prefecture":"北海道","city":"札幌市南区","latitude":42.979953,"longitude":141.340793},{"prefecture":"北海道","city":"札幌市西区","latitude":43.079715,"longitude":141.308758},{"prefecture":"北海道","city":"札幌市厚別区","latitude":43.033189,"longitude":141.471776},{"prefecture":"北海道","city":"札幌市手稲区","latitude":43.145554,"longitude":141.239503},{"prefecture":"北海道","city":"札幌市清田区","latitude":42.932893,"longitude":141.416259},{"prefecture":"北海道","city":"函館市","latitude":41.892755,"longitude":140.806255},{"prefecture":"北海道","city":"小樽市","latitude":43.191426,"longitude":141.004925},{"prefecture":"北海道","city":"旭川市","latitude":43.806261,"longitude":142.335924},{"prefecture":"北海道","city":"室蘭市","latitude":42.3855,"longitude":140.936264},{"prefecture":"北海道","city":"釧路市","latitude":43.060789,"longitude":144.367638},{"prefecture":"北海道","city":"帯広市","latitude":42.787082,"longitude":143.06174},{"prefecture":"北海道","city":"北見市","latitude":44.093795,"longitude":144.044459},{"prefecture":"北海道","city":"夕張市","latitude":43.008553,"longitude":142.06207},{"prefecture":"北海道","city":"岩見沢市","latitude":43.192858,"longitude":141.775307},{"prefecture":"北海道","city":"網走市","latitude":44.019805,"longitude":144.216005},{"prefecture":"北海道","city":"留萌市","latitude":43.861254,"longitude":141.706942},{"prefecture":"北海道","city":"苫小牧市","latitude":42.722251,"longitude":141.507028},{"prefecture":"北海道","city":"稚内市","latitude":45.299825,"longitude":141.834911},{"prefecture":"北海道","city":"美唄市","latitude":43.312929,"longitude":141.764435},{"prefecture":"北海道","city":"芦別市","latitude":43.418658,"longitude":142.334896},{"prefecture":"北海道","city":"江別市","latitude":43.116387,"longitude":141.560217},{"prefecture":"北海道","city":"赤平市","latitude":43.510733,"longitude":142.09303},{"prefecture":"北海道","city":"紋別市","latitude":44.283087,"longitude":143.302698},{"prefecture":"北海道","city":"士別市","latitude":44.157118,"longitude":142.400816},{"prefecture":"北海道","city":"名寄市","latitude":44.328884,"longitude":142.425271},{"prefecture":"北海道","city":"三笠市","latitude":43.277143,"longitude":141.96267},{"prefecture":"北海道","city":"根室市","latitude":43.421445,"longitude":146.068617},{"prefecture":"北海道","city":"千歳市","latitude":42.802866,"longitude":141.41406},{"prefecture":"北海道","city":"滝川市","latitude":43.566745,"longitude":141.882097},{"prefecture":"北海道","city":"砂川市","latitude":43.491667,"longitude":141.896035},{"prefecture":"北海道","city":"歌志内市","latitude":43.508828,"longitude":142.07319},{"prefecture":"北海道","city":"深川市","latitude":43.722666,"longitude":142.047411},{"prefecture":"北海道","city":"富良野市","latitude":43.3548,"longitude":142.556961},{"prefecture":"北海道","city":"登別市","latitude":42.398287,"longitude":141.080418},{"prefecture":"北海道","city":"恵庭市","latitude":42.880707,"longitude":141.586875},{"prefecture":"北海道","city":"伊達市","latitude":42.465988,"longitude":140.867344},{"prefecture":"北海道","city":"北広島市","latitude":42.97227,"longitude":141.5635},{"prefecture":"北海道","city":"石狩市","latitude":43.256763,"longitude":141.406892},{"prefecture":"北海道","city":"北斗市","latitude":41.802159,"longitude":140.617188},{"prefecture":"北海道","city":"石狩郡当別町","latitude":43.240378,"longitude":141.473262},{"prefecture":"北海道","city":"石狩郡新篠津村","latitude":43.206845,"longitude":141.635256},{"prefecture":"北海道","city":"松前郡松前町","latitude":41.479276,"longitude":140.145887},{"prefecture":"北海道","city":"松前郡福島町","latitude":41.508289,"longitude":140.253472},{"prefecture":"北海道","city":"上磯郡知内町","latitude":41.584746,"longitude":140.362804},{"prefecture":"北海道","city":"上磯郡木古内町","latitude":41.710262,"longitude":140.395931},{"prefecture":"北海道","city":"亀田郡七飯町","latitude":41.923775,"longitude":140.697787},{"prefecture":"北海道","city":"茅部郡鹿部町","latitude":41.998462,"longitude":140.838273},{"prefecture":"北海道","city":"茅部郡森町","latitude":42.137342,"longitude":140.415931},{"prefecture":"北海道","city":"二海郡八雲町","latitude":42.091043,"longitude":140.127177},{"prefecture":"北海道","city":"山越郡長万部町","latitude":42.47777,"longitude":140.34537},{"prefecture":"北海道","city":"檜山郡江差町","latitude":41.865521,"longitude":140.12392},{"prefecture":"北海道","city":"檜山郡上ノ国町","latitude":41.802894,"longitude":140.10861},{"prefecture":"北海道","city":"檜山郡厚沢部町","latitude":41.90271,"longitude":140.257974},{"prefecture":"北海道","city":"爾志郡乙部町","latitude":42.034298,"longitude":140.107757},{"prefecture":"北海道","city":"奥尻郡奥尻町","latitude":42.170699,"longitude":139.491111},{"prefecture":"北海道","city":"瀬棚郡今金町","latitude":42.406828,"longitude":140.153507},{"prefecture":"北海道","city":"久遠郡せたな町","latitude":42.396773,"longitude":139.913184},{"prefecture":"北海道","city":"島牧郡島牧村","latitude":42.675485,"longitude":139.993557},{"prefecture":"北海道","city":"寿都郡寿都町","latitude":42.780091,"longitude":140.227838},{"prefecture":"北海道","city":"寿都郡黒松内町","latitude":42.717848,"longitude":140.231583},{"prefecture":"北海道","city":"磯谷郡蘭越町","latitude":42.82805,"longitude":140.466813},{"prefecture":"北海道","city":"虻田郡ニセコ町","latitude":42.829298,"longitude":140.638993},{"prefecture":"北海道","city":"虻田郡真狩村","latitude":42.756534,"longitude":140.826831},{"prefecture":"北海道","city":"虻田郡留寿都村","latitude":42.693191,"longitude":140.833442},{"prefecture":"北海道","city":"虻田郡喜茂別町","latitude":42.755457,"longitude":141.017639},{"prefecture":"北海道","city":"虻田郡京極町","latitude":42.857638,"longitude":140.901499},{"prefecture":"北海道","city":"虻田郡倶知安町","latitude":42.90059,"longitude":140.795967},{"prefecture":"北海道","city":"岩内郡共和町","latitude":42.939899,"longitude":140.550661},{"prefecture":"北海道","city":"岩内郡岩内町","latitude":42.983676,"longitude":140.514582},{"prefecture":"北海道","city":"古宇郡泊村","latitude":43.070243,"longitude":140.542317},{"prefecture":"北海道","city":"古宇郡神恵内村","latitude":43.229943,"longitude":140.372318},{"prefecture":"北海道","city":"積丹郡積丹町","latitude":43.305553,"longitude":140.378574},{"prefecture":"北海道","city":"古平郡古平町","latitude":43.281363,"longitude":140.640493},{"prefecture":"北海道","city":"余市郡仁木町","latitude":43.122335,"longitude":140.779344},{"prefecture":"北海道","city":"余市郡余市町","latitude":43.193712,"longitude":140.780153},{"prefecture":"北海道","city":"余市郡赤井川村","latitude":43.077281,"longitude":140.827116},{"prefecture":"北海道","city":"空知郡南幌町","latitude":43.097764,"longitude":141.629632},{"prefecture":"北海道","city":"空知郡奈井江町","latitude":43.418113,"longitude":141.844206},{"prefecture":"北海道","city":"空知郡上砂川町","latitude":43.451763,"longitude":142.02715},{"prefecture":"北海道","city":"夕張郡由仁町","latitude":42.988172,"longitude":141.829618},{"prefecture":"北海道","city":"夕張郡長沼町","latitude":43.016889,"longitude":141.743334},{"prefecture":"北海道","city":"夕張郡栗山町","latitude":43.02698,"longitude":141.78796},{"prefecture":"北海道","city":"樺戸郡月形町","latitude":43.339663,"longitude":141.617018},{"prefecture":"北海道","city":"樺戸郡浦臼町","latitude":43.479323,"longitude":141.781487},{"prefecture":"北海道","city":"樺戸郡新十津川町","latitude":43.639114,"longitude":141.678704},{"prefecture":"北海道","city":"雨竜郡妹背牛町","latitude":43.740122,"longitude":141.967821},{"prefecture":"北海道","city":"雨竜郡秩父別町","latitude":43.76061,"longitude":141.948756},{"prefecture":"北海道","city":"雨竜郡雨竜町","latitude":43.644087,"longitude":141.889432},{"prefecture":"北海道","city":"雨竜郡北竜町","latitude":43.726157,"longitude":141.839303},{"prefecture":"北海道","city":"雨竜郡沼田町","latitude":43.819272,"longitude":142.001247},{"prefecture":"北海道","city":"上川郡鷹栖町","latitude":43.841298,"longitude":142.382647},{"prefecture":"北海道","city":"上川郡東神楽町","latitude":43.712939,"longitude":142.422489},{"prefecture":"北海道","city":"上川郡当麻町","latitude":43.824967,"longitude":142.495141},{"prefecture":"北海道","city":"上川郡比布町","latitude":43.895453,"longitude":142.510299},{"prefecture":"北海道","city":"上川郡愛別町","latitude":43.891088,"longitude":142.659319},{"prefecture":"北海道","city":"上川郡上川町","latitude":43.891171,"longitude":142.982086},{"prefecture":"北海道","city":"上川郡東川町","latitude":43.705566,"longitude":142.542119},{"prefecture":"北海道","city":"上川郡美瑛町","latitude":43.575234,"longitude":142.460683},{"prefecture":"北海道","city":"空知郡上富良野町","latitude":43.448115,"longitude":142.539143},{"prefecture":"北海道","city":"空知郡中富良野町","latitude":43.425173,"longitude":142.397413},{"prefecture":"北海道","city":"空知郡南富良野町","latitude":43.179224,"longitude":142.416219},{"prefecture":"北海道","city":"勇払郡占冠村","latitude":42.988823,"longitude":142.398474},{"prefecture":"北海道","city":"上川郡和寒町","latitude":44.010037,"longitude":142.354153},{"prefecture":"北海道","city":"上川郡剣淵町","latitude":44.110272,"longitude":142.345097},{"prefecture":"北海道","city":"上川郡下川町","latitude":44.304509,"longitude":142.641838},{"prefecture":"北海道","city":"中川郡美深町","latitude":44.531017,"longitude":142.5486},{"prefecture":"北海道","city":"中川郡音威子府村","latitude":44.787785,"longitude":142.228355},{"prefecture":"北海道","city":"中川郡中川町","latitude":44.825611,"longitude":142.096064},{"prefecture":"北海道","city":"雨竜郡幌加内町","latitude":44.041372,"longitude":142.147318},{"prefecture":"北海道","city":"増毛郡増毛町","latitude":43.871273,"longitude":141.630987},{"prefecture":"北海道","city":"留萌郡小平町","latitude":44.049758,"longitude":141.809233},{"prefecture":"北海道","city":"苫前郡苫前町","latitude":44.144956,"longitude":141.843631},{"prefecture":"北海道","city":"苫前郡羽幌町","latitude":44.427689,"longitude":141.320501},{"prefecture":"北海道","city":"苫前郡初山別村","latitude":44.616607,"longitude":141.80911},{"prefecture":"北海道","city":"天塩郡遠別町","latitude":44.687299,"longitude":141.926429},{"prefecture":"北海道","city":"天塩郡天塩町","latitude":44.93981,"longitude":141.822185},{"prefecture":"北海道","city":"宗谷郡猿払村","latitude":45.212723,"longitude":142.221329},{"prefecture":"北海道","city":"枝幸郡浜頓別町","latitude":45.125582,"longitude":142.297561},{"prefecture":"北海道","city":"枝幸郡中頓別町","latitude":44.852695,"longitude":142.274425},{"prefecture":"北海道","city":"枝幸郡枝幸町","latitude":44.937051,"longitude":142.51172},{"prefecture":"北海道","city":"天塩郡豊富町","latitude":45.104697,"longitude":141.788423},{"prefecture":"北海道","city":"礼文郡礼文町","latitude":45.391637,"longitude":141.001554},{"prefecture":"北海道","city":"利尻郡利尻町","latitude":45.187521,"longitude":141.148816},{"prefecture":"北海道","city":"利尻郡利尻富士町","latitude":45.222094,"longitude":141.219863},{"prefecture":"北海道","city":"天塩郡幌延町","latitude":45.042873,"longitude":142.066159},{"prefecture":"北海道","city":"網走郡美幌町","latitude":43.823873,"longitude":144.113885},{"prefecture":"北海道","city":"網走郡津別町","latitude":43.707604,"longitude":144.020358},{"prefecture":"北海道","city":"斜里郡斜里町","latitude":44.20071,"longitude":145.239501},{"prefecture":"北海道","city":"斜里郡清里町","latitude":43.846274,"longitude":144.577611},{"prefecture":"北海道","city":"斜里郡小清水町","latitude":43.740139,"longitude":144.431536},{"prefecture":"北海道","city":"常呂郡訓子府町","latitude":43.733629,"longitude":143.687598},{"prefecture":"北海道","city":"常呂郡置戸町","latitude":43.668152,"longitude":143.543927},{"prefecture":"北海道","city":"常呂郡佐呂間町","latitude":43.966914,"longitude":143.713877},{"prefecture":"北海道","city":"紋別郡遠軽町","latitude":44.077961,"longitude":143.564135},{"prefecture":"北海道","city":"紋別郡湧別町","latitude":44.228466,"longitude":143.619525},{"prefecture":"北海道","city":"紋別郡滝上町","latitude":44.16037,"longitude":143.051268},{"prefecture":"北海道","city":"紋別郡興部町","latitude":44.368445,"longitude":143.191834},{"prefecture":"北海道","city":"紋別郡西興部村","latitude":44.336279,"longitude":142.941331},{"prefecture":"北海道","city":"紋別郡雄武町","latitude":44.519728,"longitude":142.746643},{"prefecture":"北海道","city":"網走郡大空町","latitude":43.868569,"longitude":144.370116},{"prefecture":"北海道","city":"虻田郡豊浦町","latitude":42.66386,"longitude":140.647402},{"prefecture":"北海道","city":"有珠郡壮瞥町","latitude":42.593383,"longitude":141.007242},{"prefecture":"北海道","city":"白老郡白老町","latitude":42.546464,"longitude":141.235816},{"prefecture":"北海道","city":"勇払郡厚真町","latitude":42.631641,"longitude":141.848324},{"prefecture":"北海道","city":"虻田郡洞爺湖町","latitude":42.555599,"longitude":140.764077},{"prefecture":"北海道","city":"勇払郡安平町","latitude":42.816856,"longitude":141.82393},{"prefecture":"北海道","city":"勇払郡むかわ町","latitude":42.585475,"longitude":141.927808},{"prefecture":"北海道","city":"沙流郡日高町","latitude":42.591337,"longitude":142.388254},{"prefecture":"北海道","city":"沙流郡平取町","latitude":42.635429,"longitude":142.178393},{"prefecture":"北海道","city":"新冠郡新冠町","latitude":42.415612,"longitude":142.41815},{"prefecture":"北海道","city":"浦河郡浦河町","latitude":42.236923,"longitude":142.82396},{"prefecture":"北海道","city":"様似郡様似町","latitude":42.108858,"longitude":143.011941},{"prefecture":"北海道","city":"幌泉郡えりも町","latitude":41.974623,"longitude":143.226716},{"prefecture":"北海道","city":"日高郡新ひだか町","latitude":42.351402,"longitude":142.629581},{"prefecture":"北海道","city":"河東郡音更町","latitude":43.012336,"longitude":143.131794},{"prefecture":"北海道","city":"河東郡士幌町","latitude":43.126471,"longitude":143.354112},{"prefecture":"北海道","city":"河東郡上士幌町","latitude":43.379735,"longitude":143.164639},{"prefecture":"北海道","city":"河東郡鹿追町","latitude":43.164683,"longitude":142.964841},{"prefecture":"北海道","city":"上川郡新得町","latitude":43.136264,"longitude":142.876958},{"prefecture":"北海道","city":"上川郡清水町","latitude":43.080331,"longitude":142.952468},{"prefecture":"北海道","city":"河西郡芽室町","latitude":42.794121,"longitude":143.02179},{"prefecture":"北海道","city":"河西郡中札内村","latitude":42.627062,"longitude":143.09167},{"prefecture":"北海道","city":"河西郡更別村","latitude":42.606423,"longitude":143.244889},{"prefecture":"北海道","city":"広尾郡大樹町","latitude":42.499041,"longitude":143.301335},{"prefecture":"北海道","city":"広尾郡広尾町","latitude":42.370589,"longitude":143.358005},{"prefecture":"北海道","city":"中川郡幕別町","latitude":42.726787,"longitude":143.313928},{"prefecture":"北海道","city":"中川郡池田町","latitude":43.018442,"longitude":143.400886},{"prefecture":"北海道","city":"中川郡豊頃町","latitude":42.702299,"longitude":143.662039},{"prefecture":"北海道","city":"中川郡本別町","latitude":43.102285,"longitude":143.492998},{"prefecture":"北海道","city":"足寄郡足寄町","latitude":43.343657,"longitude":143.765379},{"prefecture":"北海道","city":"足寄郡陸別町","latitude":43.469336,"longitude":143.782572},{"prefecture":"北海道","city":"十勝郡浦幌町","latitude":42.717266,"longitude":143.617496},{"prefecture":"北海道","city":"釧路郡釧路町","latitude":42.966902,"longitude":144.713291},{"prefecture":"北海道","city":"厚岸郡厚岸町","latitude":43.091075,"longitude":144.7583},{"prefecture":"北海道","city":"厚岸郡浜中町","latitude":43.219663,"longitude":145.067923},{"prefecture":"北海道","city":"川上郡標茶町","latitude":43.155967,"longitude":144.502237},{"prefecture":"北海道","city":"川上郡弟子屈町","latitude":43.610507,"longitude":144.456936},{"prefecture":"北海道","city":"阿寒郡鶴居村","latitude":43.092401,"longitude":144.306244},{"prefecture":"北海道","city":"白糠郡白糠町","latitude":43.006523,"longitude":144.052284},{"prefecture":"北海道","city":"野付郡別海町","latitude":43.393788,"longitude":144.707204},{"prefecture":"北海道","city":"標津郡中標津町","latitude":43.511639,"longitude":144.763649},{"prefecture":"北海道","city":"標津郡標津町","latitude":43.680797,"longitude":145.104109},{"prefecture":"北海道","city":"目梨郡羅臼町","latitude":44.186819,"longitude":145.317394},{"prefecture":"青森県","city":"青森市","latitude":40.810829,"longitude":140.689088},{"prefecture":"青森県","city":"弘前市","latitude":40.609382,"longitude":140.430263},{"prefecture":"青森県","city":"八戸市","latitude":40.403681,"longitude":141.410179},{"prefecture":"青森県","city":"黒石市","latitude":40.665343,"longitude":140.58337},{"prefecture":"青森県","city":"五所川原市","latitude":40.82352,"longitude":140.471105},{"prefecture":"青森県","city":"十和田市","latitude":40.625859,"longitude":141.246525},{"prefecture":"青森県","city":"三沢市","latitude":40.774847,"longitude":141.382083},{"prefecture":"青森県","city":"むつ市","latitude":41.170953,"longitude":141.28329},{"prefecture":"青森県","city":"つがる市","latitude":40.815893,"longitude":140.369844},{"prefecture":"青森県","city":"平川市","latitude":40.602096,"longitude":140.568429},{"prefecture":"青森県","city":"東津軽郡平内町","latitude":40.924383,"longitude":140.884375},{"prefecture":"青森県","city":"東津軽郡今別町","latitude":41.167818,"longitude":140.480629},{"prefecture":"青森県","city":"東津軽郡蓬田村","latitude":40.954651,"longitude":140.640011},{"prefecture":"青森県","city":"東津軽郡外ケ浜町","latitude":41.236488,"longitude":140.391475},{"prefecture":"青森県","city":"西津軽郡鰺ヶ沢町","latitude":40.680371,"longitude":140.143261},{"prefecture":"青森県","city":"西津軽郡深浦町","latitude":40.614357,"longitude":140.001936},{"prefecture":"青森県","city":"中津軽郡西目屋村","latitude":40.578941,"longitude":140.269431},{"prefecture":"青森県","city":"南津軽郡藤崎町","latitude":40.67115,"longitude":140.564956},{"prefecture":"青森県","city":"南津軽郡大鰐町","latitude":40.512854,"longitude":140.542241},{"prefecture":"青森県","city":"南津軽郡田舎館村","latitude":40.640555,"longitude":140.548482},{"prefecture":"青森県","city":"北津軽郡板柳町","latitude":40.706514,"longitude":140.46463},{"prefecture":"青森県","city":"北津軽郡鶴田町","latitude":40.748699,"longitude":140.449973},{"prefecture":"青森県","city":"北津軽郡中泊町","latitude":41.022436,"longitude":140.489689},{"prefecture":"青森県","city":"上北郡野辺地町","latitude":40.86919,"longitude":141.144519},{"prefecture":"青森県","city":"上北郡七戸町","latitude":40.696638,"longitude":141.151648},{"prefecture":"青森県","city":"上北郡六戸町","latitude":40.581938,"longitude":141.327752},{"prefecture":"青森県","city":"上北郡横浜町","latitude":41.066999,"longitude":141.266482},{"prefecture":"青森県","city":"上北郡東北町","latitude":40.735432,"longitude":141.249514},{"prefecture":"青森県","city":"上北郡六ヶ所村","latitude":40.876101,"longitude":141.301181},{"prefecture":"青森県","city":"上北郡おいらせ町","latitude":40.590251,"longitude":141.38252},{"prefecture":"青森県","city":"下北郡大間町","latitude":41.527021,"longitude":140.920337},{"prefecture":"青森県","city":"下北郡東通村","latitude":41.333295,"longitude":141.25873},{"prefecture":"青森県","city":"下北郡風間浦村","latitude":41.468417,"longitude":141.084885},{"prefecture":"青森県","city":"下北郡佐井村","latitude":41.403862,"longitude":140.882932},{"prefecture":"青森県","city":"三戸郡三戸町","latitude":40.387931,"longitude":141.264705},{"prefecture":"青森県","city":"三戸郡五戸町","latitude":40.562765,"longitude":141.39458},{"prefecture":"青森県","city":"三戸郡田子町","latitude":40.306553,"longitude":141.136931},{"prefecture":"青森県","city":"三戸郡南部町","latitude":40.408635,"longitude":141.327734},{"prefecture":"青森県","city":"三戸郡階上町","latitude":40.42076,"longitude":141.556793},{"prefecture":"青森県","city":"三戸郡新郷村","latitude":40.453328,"longitude":141.112886},{"prefecture":"岩手県","city":"盛岡市","latitude":39.692006,"longitude":141.06424},{"prefecture":"岩手県","city":"宮古市","latitude":39.645709,"longitude":141.356334},{"prefecture":"岩手県","city":"大船渡市","latitude":39.057747,"longitude":141.75258},{"prefecture":"岩手県","city":"花巻市","latitude":39.369417,"longitude":141.124217},{"prefecture":"岩手県","city":"北上市","latitude":39.249061,"longitude":141.091612},{"prefecture":"岩手県","city":"久慈市","latitude":40.190264,"longitude":141.77109},{"prefecture":"岩手県","city":"遠野市","latitude":39.31283,"longitude":141.560188},{"prefecture":"岩手県","city":"一関市","latitude":38.932547,"longitude":141.139792},{"prefecture":"岩手県","city":"陸前高田市","latitude":38.997881,"longitude":141.693076},{"prefecture":"岩手県","city":"釜石市","latitude":39.236727,"longitude":141.900671},{"prefecture":"岩手県","city":"二戸市","latitude":40.243094,"longitude":141.215237},{"prefecture":"岩手県","city":"八幡平市","latitude":40.125867,"longitude":141.08752},{"prefecture":"岩手県","city":"奥州市","latitude":39.129209,"longitude":141.19608},{"prefecture":"岩手県","city":"滝沢市","latitude":39.726961,"longitude":141.055788},{"prefecture":"岩手県","city":"岩手郡雫石町","latitude":39.682157,"longitude":140.991925},{"prefecture":"岩手県","city":"岩手郡葛巻町","latitude":39.978636,"longitude":141.509963},{"prefecture":"岩手県","city":"岩手郡岩手町","latitude":40.014401,"longitude":141.177735},{"prefecture":"岩手県","city":"紫波郡紫波町","latitude":39.537107,"longitude":141.246917},{"prefecture":"岩手県","city":"紫波郡矢巾町","latitude":39.621106,"longitude":141.134661},{"prefecture":"岩手県","city":"和賀郡西和賀町","latitude":39.314182,"longitude":140.82617},{"prefecture":"岩手県","city":"胆沢郡金ケ崎町","latitude":39.158154,"longitude":140.972985},{"prefecture":"岩手県","city":"西磐井郡平泉町","latitude":38.990173,"longitude":141.155797},{"prefecture":"岩手県","city":"気仙郡住田町","latitude":39.218929,"longitude":141.631505},{"prefecture":"岩手県","city":"上閉伊郡大槌町","latitude":39.459542,"longitude":141.777384},{"prefecture":"岩手県","city":"下閉伊郡山田町","latitude":39.539248,"longitude":141.835275},{"prefecture":"岩手県","city":"下閉伊郡岩泉町","latitude":39.809125,"longitude":141.711972},{"prefecture":"岩手県","city":"下閉伊郡田野畑村","latitude":39.957441,"longitude":141.915631},{"prefecture":"岩手県","city":"下閉伊郡普代村","latitude":39.990149,"longitude":141.928282},{"prefecture":"岩手県","city":"九戸郡軽米町","latitude":40.328742,"longitude":141.522893},{"prefecture":"岩手県","city":"九戸郡野田村","latitude":40.052976,"longitude":141.815543},{"prefecture":"岩手県","city":"九戸郡九戸村","latitude":40.196815,"longitude":141.457605},{"prefecture":"岩手県","city":"九戸郡洋野町","latitude":40.339829,"longitude":141.602408},{"prefecture":"岩手県","city":"二戸郡一戸町","latitude":40.161251,"longitude":141.336756},{"prefecture":"宮城県","city":"仙台市青葉区","latitude":38.309684,"longitude":140.650243},{"prefecture":"宮城県","city":"仙台市宮城野区","latitude":38.288762,"longitude":140.8964},{"prefecture":"宮城県","city":"仙台市若林区","latitude":38.233649,"longitude":140.955872},{"prefecture":"宮城県","city":"仙台市太白区","latitude":38.240266,"longitude":140.856149},{"prefecture":"宮城県","city":"仙台市泉区","latitude":38.33931,"longitude":140.889459},{"prefecture":"宮城県","city":"石巻市","latitude":38.437731,"longitude":141.281801},{"prefecture":"宮城県","city":"塩竈市","latitude":38.341775,"longitude":141.018031},{"prefecture":"宮城県","city":"気仙沼市","latitude":38.843204,"longitude":141.642187},{"prefecture":"宮城県","city":"白石市","latitude":37.988085,"longitude":140.622113},{"prefecture":"宮城県","city":"名取市","latitude":38.15856,"longitude":140.863748},{"prefecture":"宮城県","city":"角田市","latitude":38.008588,"longitude":140.743205},{"prefecture":"宮城県","city":"多賀城市","latitude":38.30417,"longitude":140.961389},{"prefecture":"宮城県","city":"岩沼市","latitude":38.121196,"longitude":140.868485},{"prefecture":"宮城県","city":"登米市","latitude":38.663652,"longitude":141.118211},{"prefecture":"宮城県","city":"栗原市","latitude":38.740127,"longitude":141.075383},{"prefecture":"宮城県","city":"東松島市","latitude":38.428403,"longitude":141.218819},{"prefecture":"宮城県","city":"大崎市","latitude":38.586634,"longitude":140.949843},{"prefecture":"宮城県","city":"富谷市","latitude":38.3491,"longitude":140.90896},{"prefecture":"宮城県","city":"刈田郡蔵王町","latitude":38.118916,"longitude":140.630146},{"prefecture":"宮城県","city":"刈田郡七ヶ宿町","latitude":38.015009,"longitude":140.46403},{"prefecture":"宮城県","city":"柴田郡大河原町","latitude":38.036985,"longitude":140.731042},{"prefecture":"宮城県","city":"柴田郡村田町","latitude":38.122395,"longitude":140.750078},{"prefecture":"宮城県","city":"柴田郡柴田町","latitude":38.05743,"longitude":140.792182},{"prefecture":"宮城県","city":"柴田郡川崎町","latitude":38.204194,"longitude":140.53572},{"prefecture":"宮城県","city":"伊具郡丸森町","latitude":37.914436,"longitude":140.756365},{"prefecture":"宮城県","city":"亘理郡亘理町","latitude":38.02646,"longitude":140.863654},{"prefecture":"宮城県","city":"亘理郡山元町","latitude":37.955162,"longitude":140.876304},{"prefecture":"宮城県","city":"宮城郡松島町","latitude":38.38788,"longitude":141.079564},{"prefecture":"宮城県","city":"宮城郡七ヶ浜町","latitude":38.29958,"longitude":141.044673},{"prefecture":"宮城県","city":"宮城郡利府町","latitude":38.334541,"longitude":140.964624},{"prefecture":"宮城県","city":"黒川郡大和町","latitude":38.430514,"longitude":140.947568},{"prefecture":"宮城県","city":"黒川郡大郷町","latitude":38.449863,"longitude":140.979107},{"prefecture":"宮城県","city":"黒川郡大衡村","latitude":38.481279,"longitude":140.829663},{"prefecture":"宮城県","city":"加美郡色麻町","latitude":38.534918,"longitude":140.856664},{"prefecture":"宮城県","city":"加美郡加美町","latitude":38.566631,"longitude":140.869369},{"prefecture":"宮城県","city":"遠田郡涌谷町","latitude":38.548876,"longitude":141.106446},{"prefecture":"宮城県","city":"遠田郡美里町","latitude":38.590834,"longitude":141.015463},{"prefecture":"宮城県","city":"牡鹿郡女川町","latitude":38.404361,"longitude":141.552868},{"prefecture":"宮城県","city":"本吉郡南三陸町","latitude":38.693618,"longitude":141.397658},{"prefecture":"秋田県","city":"秋田市","latitude":39.751713,"longitude":140.061735},{"prefecture":"秋田県","city":"能代市","latitude":40.224606,"longitude":140.255143},{"prefecture":"秋田県","city":"横手市","latitude":39.225365,"longitude":140.527084},{"prefecture":"秋田県","city":"大館市","latitude":40.265328,"longitude":140.560573},{"prefecture":"秋田県","city":"男鹿市","latitude":39.96612,"longitude":139.778329},{"prefecture":"秋田県","city":"湯沢市","latitude":39.158744,"longitude":140.534089},{"prefecture":"秋田県","city":"鹿角市","latitude":40.179767,"longitude":140.741629},{"prefecture":"秋田県","city":"由利本荘市","latitude":39.508172,"longitude":140.092855},{"prefecture":"秋田県","city":"潟上市","latitude":39.898089,"longitude":140.077104},{"prefecture":"秋田県","city":"大仙市","latitude":39.566121,"longitude":140.565665},{"prefecture":"秋田県","city":"北秋田市","latitude":39.991073,"longitude":140.475324},{"prefecture":"秋田県","city":"にかほ市","latitude":39.219524,"longitude":139.998029},{"prefecture":"秋田県","city":"仙北市","latitude":39.593981,"longitude":140.576616},{"prefecture":"秋田県","city":"鹿角郡小坂町","latitude":40.300628,"longitude":140.760426},{"prefecture":"秋田県","city":"北秋田郡上小阿仁村","latitude":40.030919,"longitude":140.267611},{"prefecture":"秋田県","city":"山本郡藤里町","latitude":40.276743,"longitude":140.304015},{"prefecture":"秋田県","city":"山本郡三種町","latitude":40.07329,"longitude":139.962481},{"prefecture":"秋田県","city":"山本郡八峰町","latitude":40.396356,"longitude":140.03869},{"prefecture":"秋田県","city":"南秋田郡五城目町","latitude":39.946631,"longitude":140.114288},{"prefecture":"秋田県","city":"南秋田郡八郎潟町","latitude":39.951951,"longitude":140.068059},{"prefecture":"秋田県","city":"南秋田郡井川町","latitude":39.884129,"longitude":140.121649},{"prefecture":"秋田県","city":"南秋田郡大潟村","latitude":40.019498,"longitude":139.959752},{"prefecture":"秋田県","city":"仙北郡美郷町","latitude":39.444077,"longitude":140.553514},{"prefecture":"秋田県","city":"雄勝郡羽後町","latitude":39.194329,"longitude":140.435011},{"prefecture":"秋田県","city":"雄勝郡東成瀬村","latitude":39.180566,"longitude":140.715779},{"prefecture":"山形県","city":"山形市","latitude":38.274457,"longitude":140.286008},{"prefecture":"山形県","city":"米沢市","latitude":37.880855,"longitude":140.136172},{"prefecture":"山形県","city":"鶴岡市","latitude":38.63127,"longitude":139.766103},{"prefecture":"山形県","city":"酒田市","latitude":38.980972,"longitude":139.91233},{"prefecture":"山形県","city":"新庄市","latitude":38.745821,"longitude":140.292125},{"prefecture":"山形県","city":"寒河江市","latitude":38.363086,"longitude":140.230854},{"prefecture":"山形県","city":"上山市","latitude":38.132553,"longitude":140.268235},{"prefecture":"山形県","city":"村山市","latitude":38.502937,"longitude":140.432362},{"prefecture":"山形県","city":"長井市","latitude":38.147164,"longitude":139.909476},{"prefecture":"山形県","city":"天童市","latitude":38.319732,"longitude":140.404957},{"prefecture":"山形県","city":"東根市","latitude":38.411855,"longitude":140.403463},{"prefecture":"山形県","city":"尾花沢市","latitude":38.551728,"longitude":140.551748},{"prefecture":"山形県","city":"南陽市","latitude":38.031818,"longitude":140.163856},{"prefecture":"山形県","city":"東村山郡山辺町","latitude":38.28397,"longitude":140.258195},{"prefecture":"山形県","city":"東村山郡中山町","latitude":38.315605,"longitude":140.290624},{"prefecture":"山形県","city":"西村山郡河北町","latitude":38.444532,"longitude":140.318472},{"prefecture":"山形県","city":"西村山郡西川町","latitude":38.411318,"longitude":140.053454},{"prefecture":"山形県","city":"西村山郡朝日町","latitude":38.314613,"longitude":140.128231},{"prefecture":"山形県","city":"西村山郡大江町","latitude":38.354211,"longitude":140.216649},{"prefecture":"山形県","city":"北村山郡大石田町","latitude":38.578165,"longitude":140.3927},{"prefecture":"山形県","city":"最上郡金山町","latitude":38.852106,"longitude":140.329767},{"prefecture":"山形県","city":"最上郡最上町","latitude":38.779783,"longitude":140.522085},{"prefecture":"山形県","city":"最上郡舟形町","latitude":38.693674,"longitude":140.279473},{"prefecture":"山形県","city":"最上郡真室川町","latitude":38.844689,"longitude":140.271707},{"prefecture":"山形県","city":"最上郡大蔵村","latitude":38.585647,"longitude":140.17524},{"prefecture":"山形県","city":"最上郡鮭川村","latitude":38.814374,"longitude":140.151321},{"prefecture":"山形県","city":"最上郡戸沢村","latitude":38.755467,"longitude":140.089822},{"prefecture":"山形県","city":"東置賜郡高畠町","latitude":38.003015,"longitude":140.165165},{"prefecture":"山形県","city":"東置賜郡川西町","latitude":37.963454,"longitude":140.020726},{"prefecture":"山形県","city":"西置賜郡小国町","latitude":38.156708,"longitude":139.741532},{"prefecture":"山形県","city":"西置賜郡白鷹町","latitude":38.217453,"longitude":140.107387},{"prefecture":"山形県","city":"西置賜郡飯豊町","latitude":37.912615,"longitude":139.911872},{"prefecture":"山形県","city":"東田川郡三川町","latitude":38.780788,"longitude":139.870284},{"prefecture":"山形県","city":"東田川郡庄内町","latitude":38.821738,"longitude":139.940339},{"prefecture":"山形県","city":"飽海郡遊佐町","latitude":39.002885,"longitude":139.893762},{"prefecture":"福島県","city":"福島市","latitude":37.776734,"longitude":140.47892},{"prefecture":"福島県","city":"会津若松市","latitude":37.516543,"longitude":139.939368},{"prefecture":"福島県","city":"郡山市","latitude":37.384178,"longitude":140.371628},{"prefecture":"福島県","city":"いわき市","latitude":37.084435,"longitude":140.873257},{"prefecture":"福島県","city":"白河市","latitude":37.113132,"longitude":140.215722},{"prefecture":"福島県","city":"須賀川市","latitude":37.252926,"longitude":140.383103},{"prefecture":"福島県","city":"喜多方市","latitude":37.641512,"longitude":139.876189},{"prefecture":"福島県","city":"相馬市","latitude":37.751453,"longitude":140.937975},{"prefecture":"福島県","city":"二本松市","latitude":37.566907,"longitude":140.452206},{"prefecture":"福島県","city":"田村市","latitude":37.414457,"longitude":140.668407},{"prefecture":"福島県","city":"南相馬市","latitude":37.580961,"longitude":140.984245},{"prefecture":"福島県","city":"伊達市","latitude":37.814588,"longitude":140.503767},{"prefecture":"福島県","city":"本宮市","latitude":37.501962,"longitude":140.374651},{"prefecture":"福島県","city":"伊達郡桑折町","latitude":37.848263,"longitude":140.50832},{"prefecture":"福島県","city":"伊達郡国見町","latitude":37.897151,"longitude":140.58791},{"prefecture":"福島県","city":"伊達郡川俣町","latitude":37.697148,"longitude":140.622397},{"prefecture":"福島県","city":"安達郡大玉村","latitude":37.55421,"longitude":140.380661},{"prefecture":"福島県","city":"岩瀬郡鏡石町","latitude":37.246238,"longitude":140.351882},{"prefecture":"福島県","city":"岩瀬郡天栄村","latitude":37.261403,"longitude":140.221524},{"prefecture":"福島県","city":"南会津郡下郷町","latitude":37.25751,"longitude":139.885336},{"prefecture":"福島県","city":"南会津郡檜枝岐村","latitude":37.018918,"longitude":139.38263},{"prefecture":"福島県","city":"南会津郡只見町","latitude":37.318435,"longitude":139.4285},{"prefecture":"福島県","city":"南会津郡南会津町","latitude":37.102864,"longitude":139.535912},{"prefecture":"福島県","city":"耶麻郡北塩原村","latitude":37.663397,"longitude":139.922903},{"prefecture":"福島県","city":"耶麻郡西会津町","latitude":37.580614,"longitude":139.715122},{"prefecture":"福島県","city":"耶麻郡磐梯町","latitude":37.581299,"longitude":139.966793},{"prefecture":"福島県","city":"耶麻郡猪苗代町","latitude":37.544709,"longitude":140.072955},{"prefecture":"福島県","city":"河沼郡会津坂下町","latitude":37.57854,"longitude":139.834853},{"prefecture":"福島県","city":"河沼郡湯川村","latitude":37.574778,"longitude":139.875997},{"prefecture":"福島県","city":"河沼郡柳津町","latitude":37.459412,"longitude":139.725927},{"prefecture":"福島県","city":"大沼郡三島町","latitude":37.480247,"longitude":139.660234},{"prefecture":"福島県","city":"大沼郡金山町","latitude":37.488017,"longitude":139.522787},{"prefecture":"福島県","city":"大沼郡昭和村","latitude":37.33592,"longitude":139.606977},{"prefecture":"福島県","city":"大沼郡会津美里町","latitude":37.44512,"longitude":139.895153},{"prefecture":"福島県","city":"西白河郡西郷村","latitude":37.137526,"longitude":140.076227},{"prefecture":"福島県","city":"西白河郡泉崎村","latitude":37.141036,"longitude":140.306398},{"prefecture":"福島県","city":"西白河郡中島村","latitude":37.132615,"longitude":140.356509},{"prefecture":"福島県","city":"西白河郡矢吹町","latitude":37.168093,"longitude":140.361128},{"prefecture":"福島県","city":"東白川郡棚倉町","latitude":37.077922,"longitude":140.398866},{"prefecture":"福島県","city":"東白川郡矢祭町","latitude":36.828769,"longitude":140.457963},{"prefecture":"福島県","city":"東白川郡塙町","latitude":36.966487,"longitude":140.411598},{"prefecture":"福島県","city":"東白川郡鮫川村","latitude":37.018298,"longitude":140.4845},{"prefecture":"福島県","city":"石川郡石川町","latitude":37.152967,"longitude":140.513312},{"prefecture":"福島県","city":"石川郡玉川村","latitude":37.219855,"longitude":140.409671},{"prefecture":"福島県","city":"石川郡平田村","latitude":37.248295,"longitude":140.558782},{"prefecture":"福島県","city":"石川郡浅川町","latitude":37.062653,"longitude":140.423054},{"prefecture":"福島県","city":"石川郡古殿町","latitude":37.103453,"longitude":140.50865},{"prefecture":"福島県","city":"田村郡三春町","latitude":37.47646,"longitude":140.491082},{"prefecture":"福島県","city":"田村郡小野町","latitude":37.231482,"longitude":140.611098},{"prefecture":"福島県","city":"双葉郡広野町","latitude":37.232484,"longitude":140.970001},{"prefecture":"福島県","city":"双葉郡楢葉町","latitude":37.270716,"longitude":140.96868},{"prefecture":"福島県","city":"双葉郡富岡町","latitude":37.362663,"longitude":140.961634},{"prefecture":"福島県","city":"双葉郡川内村","latitude":37.346073,"longitude":140.769743},{"prefecture":"福島県","city":"双葉郡大熊町","latitude":37.405289,"longitude":140.974849},{"prefecture":"福島県","city":"双葉郡双葉町","latitude":37.45145,"longitude":140.97856},{"prefecture":"福島県","city":"双葉郡浪江町","latitude":37.563967,"longitude":140.76441},{"prefecture":"福島県","city":"双葉郡葛尾村","latitude":37.511209,"longitude":140.706978},{"prefecture":"福島県","city":"相馬郡新地町","latitude":37.890339,"longitude":140.921611},{"prefecture":"福島県","city":"相馬郡飯舘村","latitude":37.658772,"longitude":140.80271},{"prefecture":"茨城県","city":"水戸市","latitude":36.394705,"longitude":140.48046},{"prefecture":"茨城県","city":"日立市","latitude":36.581847,"longitude":140.659725},{"prefecture":"茨城県","city":"土浦市","latitude":36.065893,"longitude":140.174972},{"prefecture":"茨城県","city":"古河市","latitude":36.197117,"longitude":139.72136},{"prefecture":"茨城県","city":"石岡市","latitude":36.189385,"longitude":140.173117},{"prefecture":"茨城県","city":"結城市","latitude":36.207608,"longitude":139.825727},{"prefecture":"茨城県","city":"龍ヶ崎市","latitude":35.901739,"longitude":140.173297},{"prefecture":"茨城県","city":"下妻市","latitude":36.227972,"longitude":139.976149},{"prefecture":"茨城県","city":"常総市","latitude":36.055025,"longitude":140.007071},{"prefecture":"茨城県","city":"常陸太田市","latitude":36.627376,"longitude":140.450515},{"prefecture":"茨城県","city":"高萩市","latitude":36.791304,"longitude":140.566721},{"prefecture":"茨城県","city":"北茨城市","latitude":36.830983,"longitude":140.80136},{"prefecture":"茨城県","city":"笠間市","latitude":36.312881,"longitude":140.365412},{"prefecture":"茨城県","city":"取手市","latitude":35.897057,"longitude":140.084797},{"prefecture":"茨城県","city":"牛久市","latitude":35.965114,"longitude":140.254378},{"prefecture":"茨城県","city":"つくば市","latitude":36.072624,"longitude":140.038812},{"prefecture":"茨城県","city":"ひたちなか市","latitude":36.351873,"longitude":140.603158},{"prefecture":"茨城県","city":"鹿嶋市","latitude":35.946643,"longitude":140.636402},{"prefecture":"茨城県","city":"潮来市","latitude":35.936508,"longitude":140.547471},{"prefecture":"茨城県","city":"守谷市","latitude":35.956983,"longitude":140.008045},{"prefecture":"茨城県","city":"常陸大宮市","latitude":36.535021,"longitude":140.259254},{"prefecture":"茨城県","city":"那珂市","latitude":36.45705,"longitude":140.458626},{"prefecture":"茨城県","city":"筑西市","latitude":36.213049,"longitude":140.005314},{"prefecture":"茨城県","city":"坂東市","latitude":36.110153,"longitude":139.906292},{"prefecture":"茨城県","city":"稲敷市","latitude":35.910022,"longitude":140.422023},{"prefecture":"茨城県","city":"かすみがうら市","latitude":36.077705,"longitude":140.341613},{"prefecture":"茨城県","city":"桜川市","latitude":36.389899,"longitude":140.151363},{"prefecture":"茨城県","city":"神栖市","latitude":35.90089,"longitude":140.636775},{"prefecture":"茨城県","city":"行方市","latitude":36.028024,"longitude":140.514404},{"prefecture":"茨城県","city":"鉾田市","latitude":36.177131,"longitude":140.457945},{"prefecture":"茨城県","city":"つくばみらい市","latitude":35.994579,"longitude":140.030752},{"prefecture":"茨城県","city":"小美玉市","latitude":36.206582,"longitude":140.407295},{"prefecture":"茨城県","city":"東茨城郡茨城町","latitude":36.295703,"longitude":140.469808},{"prefecture":"茨城県","city":"東茨城郡大洗町","latitude":36.321332,"longitude":140.59018},{"prefecture":"茨城県","city":"東茨城郡城里町","latitude":36.437659,"longitude":140.372182},{"prefecture":"茨城県","city":"那珂郡東海村","latitude":36.482208,"longitude":140.596227},{"prefecture":"茨城県","city":"久慈郡大子町","latitude":36.773315,"longitude":140.331667},{"prefecture":"茨城県","city":"稲敷郡美浦村","latitude":36.023916,"longitude":140.332},{"prefecture":"茨城県","city":"稲敷郡阿見町","latitude":36.008406,"longitude":140.239644},{"prefecture":"茨城県","city":"稲敷郡河内町","latitude":35.868255,"longitude":140.253608},{"prefecture":"茨城県","city":"結城郡八千代町","latitude":36.213106,"longitude":139.873018},{"prefecture":"茨城県","city":"猿島郡五霞町","latitude":36.102185,"longitude":139.73773},{"prefecture":"茨城県","city":"猿島郡境町","latitude":36.08648,"longitude":139.820201},{"prefecture":"茨城県","city":"北相馬郡利根町","latitude":35.871695,"longitude":140.137366},{"prefecture":"栃木県","city":"宇都宮市","latitude":36.646869,"longitude":139.911701},{"prefecture":"栃木県","city":"足利市","latitude":36.336014,"longitude":139.461246},{"prefecture":"栃木県","city":"栃木市","latitude":36.377396,"longitude":139.736519},{"prefecture":"栃木県","city":"佐野市","latitude":36.314003,"longitude":139.582933},{"prefecture":"栃木県","city":"鹿沼市","latitude":36.563155,"longitude":139.744289},{"prefecture":"栃木県","city":"日光市","latitude":36.739432,"longitude":139.546983},{"prefecture":"栃木県","city":"小山市","latitude":36.35475,"longitude":139.81726},{"prefecture":"栃木県","city":"真岡市","latitude":36.37427,"longitude":139.942822},{"prefecture":"栃木県","city":"大田原市","latitude":36.841663,"longitude":140.058927},{"prefecture":"栃木県","city":"矢板市","latitude":36.797551,"longitude":139.941108},{"prefecture":"栃木県","city":"那須塩原市","latitude":36.911898,"longitude":140.033159},{"prefecture":"栃木県","city":"さくら市","latitude":36.672561,"longitude":140.005037},{"prefecture":"栃木県","city":"那須烏山市","latitude":36.652605,"longitude":140.163267},{"prefecture":"栃木県","city":"下野市","latitude":36.435221,"longitude":139.861396},{"prefecture":"栃木県","city":"河内郡上三川町","latitude":36.455261,"longitude":139.878127},{"prefecture":"栃木県","city":"芳賀郡益子町","latitude":36.504971,"longitude":140.090638},{"prefecture":"栃木県","city":"芳賀郡茂木町","latitude":36.52668,"longitude":140.200402},{"prefecture":"栃木県","city":"芳賀郡市貝町","latitude":36.535978,"longitude":140.082055},{"prefecture":"栃木県","city":"芳賀郡芳賀町","latitude":36.555356,"longitude":140.051314},{"prefecture":"栃木県","city":"下都賀郡壬生町","latitude":36.46337,"longitude":139.764062},{"prefecture":"栃木県","city":"下都賀郡野木町","latitude":36.216027,"longitude":139.73389},{"prefecture":"栃木県","city":"塩谷郡塩谷町","latitude":36.85107,"longitude":139.797036},{"prefecture":"栃木県","city":"塩谷郡高根沢町","latitude":36.637488,"longitude":140.051778},{"prefecture":"栃木県","city":"那須郡那須町","latitude":36.962792,"longitude":140.166526},{"prefecture":"栃木県","city":"那須郡那珂川町","latitude":36.756313,"longitude":140.142114},{"prefecture":"群馬県","city":"前橋市","latitude":36.359246,"longitude":139.074316},{"prefecture":"群馬県","city":"高崎市","latitude":36.305725,"longitude":139.089332},{"prefecture":"群馬県","city":"桐生市","latitude":36.402382,"longitude":139.316967},{"prefecture":"群馬県","city":"伊勢崎市","latitude":36.380676,"longitude":139.2619},{"prefecture":"群馬県","city":"太田市","latitude":36.248065,"longitude":139.309247},{"prefecture":"群馬県","city":"沼田市","latitude":36.680651,"longitude":139.080288},{"prefecture":"群馬県","city":"館林市","latitude":36.222711,"longitude":139.517168},{"prefecture":"群馬県","city":"渋川市","latitude":36.523192,"longitude":139.048309},{"prefecture":"群馬県","city":"藤岡市","latitude":36.234662,"longitude":139.045154},{"prefecture":"群馬県","city":"富岡市","latitude":36.283783,"longitude":138.926799},{"prefecture":"群馬県","city":"安中市","latitude":36.29363,"longitude":138.841518},{"prefecture":"群馬県","city":"みどり市","latitude":36.518931,"longitude":139.297322},{"prefecture":"群馬県","city":"北群馬郡榛東村","latitude":36.459895,"longitude":138.936629},{"prefecture":"群馬県","city":"北群馬郡吉岡町","latitude":36.461722,"longitude":138.963905},{"prefecture":"群馬県","city":"多野郡上野村","latitude":36.101042,"longitude":138.770115},{"prefecture":"群馬県","city":"多野郡神流町","latitude":36.131565,"longitude":138.912058},{"prefecture":"群馬県","city":"甘楽郡下仁田町","latitude":36.272241,"longitude":138.734615},{"prefecture":"群馬県","city":"甘楽郡南牧村","latitude":36.171657,"longitude":138.690185},{"prefecture":"群馬県","city":"甘楽郡甘楽町","latitude":36.236947,"longitude":138.926077},{"prefecture":"群馬県","city":"吾妻郡中之条町","latitude":36.632661,"longitude":138.743336},{"prefecture":"群馬県","city":"吾妻郡長野原町","latitude":36.532318,"longitude":138.624258},{"prefecture":"群馬県","city":"吾妻郡嬬恋村","latitude":36.558228,"longitude":138.543777},{"prefecture":"群馬県","city":"吾妻郡草津町","latitude":36.593479,"longitude":138.575109},{"prefecture":"群馬県","city":"吾妻郡高山村","latitude":36.621687,"longitude":138.959336},{"prefecture":"群馬県","city":"吾妻郡東吾妻町","latitude":36.546269,"longitude":138.75743},{"prefecture":"群馬県","city":"利根郡片品村","latitude":36.751879,"longitude":139.28326},{"prefecture":"群馬県","city":"利根郡川場村","latitude":36.704638,"longitude":139.152354},{"prefecture":"群馬県","city":"利根郡昭和村","latitude":36.597862,"longitude":139.054537},{"prefecture":"群馬県","city":"利根郡みなかみ町","latitude":36.768793,"longitude":138.874961},{"prefecture":"群馬県","city":"佐波郡玉村町","latitude":36.295512,"longitude":139.111869},{"prefecture":"群馬県","city":"邑楽郡板倉町","latitude":36.20356,"longitude":139.643873},{"prefecture":"群馬県","city":"邑楽郡明和町","latitude":36.213032,"longitude":139.50683},{"prefecture":"群馬県","city":"邑楽郡千代田町","latitude":36.196435,"longitude":139.474744},{"prefecture":"群馬県","city":"邑楽郡大泉町","latitude":36.265169,"longitude":139.42839},{"prefecture":"群馬県","city":"邑楽郡邑楽町","latitude":36.263476,"longitude":139.465945},{"prefecture":"埼玉県","city":"さいたま市西区","latitude":35.887092,"longitude":139.586951},{"prefecture":"埼玉県","city":"さいたま市北区","latitude":35.931542,"longitude":139.605794},{"prefecture":"埼玉県","city":"さいたま市大宮区","latitude":35.906458,"longitude":139.633381},{"prefecture":"埼玉県","city":"さいたま市見沼区","latitude":35.897555,"longitude":139.654005},{"prefecture":"埼玉県","city":"さいたま市中央区","latitude":35.893904,"longitude":139.633474},{"prefecture":"埼玉県","city":"さいたま市桜区","latitude":35.868947,"longitude":139.612054},{"prefecture":"埼玉県","city":"さいたま市浦和区","latitude":35.892378,"longitude":139.659492},{"prefecture":"埼玉県","city":"さいたま市南区","latitude":35.852142,"longitude":139.694477},{"prefecture":"埼玉県","city":"さいたま市緑区","latitude":35.884795,"longitude":139.676119},{"prefecture":"埼玉県","city":"さいたま市岩槻区","latitude":35.966186,"longitude":139.702152},{"prefecture":"埼玉県","city":"川越市","latitude":35.933132,"longitude":139.466622},{"prefecture":"埼玉県","city":"熊谷市","latitude":36.090405,"longitude":139.415292},{"prefecture":"埼玉県","city":"川口市","latitude":35.824012,"longitude":139.737699},{"prefecture":"埼玉県","city":"行田市","latitude":36.155256,"longitude":139.438416},{"prefecture":"埼玉県","city":"秩父市","latitude":36.006206,"longitude":139.08693},{"prefecture":"埼玉県","city":"所沢市","latitude":35.78598,"longitude":139.4899},{"prefecture":"埼玉県","city":"飯能市","latitude":35.910127,"longitude":139.146502},{"prefecture":"埼玉県","city":"加須市","latitude":36.133536,"longitude":139.657832},{"prefecture":"埼玉県","city":"本庄市","latitude":36.244987,"longitude":139.202992},{"prefecture":"埼玉県","city":"東松山市","latitude":36.033221,"longitude":139.340605},{"prefecture":"埼玉県","city":"春日部市","latitude":35.96049,"longitude":139.804674},{"prefecture":"埼玉県","city":"狭山市","latitude":35.87172,"longitude":139.418126},{"prefecture":"埼玉県","city":"羽生市","latitude":36.17293,"longitude":139.604305},{"prefecture":"埼玉県","city":"鴻巣市","latitude":36.091063,"longitude":139.472129},{"prefecture":"埼玉県","city":"深谷市","latitude":36.185343,"longitude":139.304241},{"prefecture":"埼玉県","city":"上尾市","latitude":35.999478,"longitude":139.577774},{"prefecture":"埼玉県","city":"草加市","latitude":35.87027,"longitude":139.823489},{"prefecture":"埼玉県","city":"越谷市","latitude":35.930954,"longitude":139.755535},{"prefecture":"埼玉県","city":"蕨市","latitude":35.82984,"longitude":139.682984},{"prefecture":"埼玉県","city":"戸田市","latitude":35.81994,"longitude":139.673543},{"prefecture":"埼玉県","city":"入間市","latitude":35.816057,"longitude":139.392161},{"prefecture":"埼玉県","city":"朝霞市","latitude":35.826427,"longitude":139.610845},{"prefecture":"埼玉県","city":"志木市","latitude":35.834697,"longitude":139.575451},{"prefecture":"埼玉県","city":"和光市","latitude":35.80537,"longitude":139.637274},{"prefecture":"埼玉県","city":"新座市","latitude":35.787944,"longitude":139.547549},{"prefecture":"埼玉県","city":"桶川市","latitude":36.005338,"longitude":139.543788},{"prefecture":"埼玉県","city":"久喜市","latitude":36.074759,"longitude":139.695474},{"prefecture":"埼玉県","city":"北本市","latitude":36.012849,"longitude":139.535408},{"prefecture":"埼玉県","city":"八潮市","latitude":35.820584,"longitude":139.824916},{"prefecture":"埼玉県","city":"富士見市","latitude":35.861541,"longitude":139.558517},{"prefecture":"埼玉県","city":"三郷市","latitude":35.864129,"longitude":139.863698},{"prefecture":"埼玉県","city":"蓮田市","latitude":36.026283,"longitude":139.614556},{"prefecture":"埼玉県","city":"坂戸市","latitude":35.98081,"longitude":139.394855},{"prefecture":"埼玉県","city":"幸手市","latitude":36.07781,"longitude":139.738254},{"prefecture":"埼玉県","city":"鶴ヶ島市","latitude":35.929049,"longitude":139.391857},{"prefecture":"埼玉県","city":"日高市","latitude":35.885917,"longitude":139.340906},{"prefecture":"埼玉県","city":"吉川市","latitude":35.872971,"longitude":139.887343},{"prefecture":"埼玉県","city":"ふじみ野市","latitude":35.855928,"longitude":139.517958},{"prefecture":"埼玉県","city":"白岡市","latitude":36.038225,"longitude":139.623468},{"prefecture":"埼玉県","city":"北足立郡伊奈町","latitude":36.007291,"longitude":139.619257},{"prefecture":"埼玉県","city":"入間郡三芳町","latitude":35.831943,"longitude":139.50037},{"prefecture":"埼玉県","city":"入間郡毛呂山町","latitude":35.934861,"longitude":139.341947},{"prefecture":"埼玉県","city":"入間郡越生町","latitude":35.977516,"longitude":139.257493},{"prefecture":"埼玉県","city":"比企郡滑川町","latitude":36.065547,"longitude":139.34709},{"prefecture":"埼玉県","city":"比企郡嵐山町","latitude":36.081181,"longitude":139.325794},{"prefecture":"埼玉県","city":"比企郡小川町","latitude":36.026689,"longitude":139.233966},{"prefecture":"埼玉県","city":"比企郡川島町","latitude":35.998212,"longitude":139.468694},{"prefecture":"埼玉県","city":"比企郡吉見町","latitude":36.067035,"longitude":139.463416},{"prefecture":"埼玉県","city":"比企郡鳩山町","latitude":35.966253,"longitude":139.34016},{"prefecture":"埼玉県","city":"比企郡ときがわ町","latitude":36.020496,"longitude":139.275565},{"prefecture":"埼玉県","city":"秩父郡横瀬町","latitude":35.968668,"longitude":139.107584},{"prefecture":"埼玉県","city":"秩父郡皆野町","latitude":36.058966,"longitude":139.136123},{"prefecture":"埼玉県","city":"秩父郡長瀞町","latitude":36.113534,"longitude":139.094564},{"prefecture":"埼玉県","city":"秩父郡小鹿野町","latitude":36.034926,"longitude":138.966173},{"prefecture":"埼玉県","city":"秩父郡東秩父村","latitude":36.056038,"longitude":139.171287},{"prefecture":"埼玉県","city":"児玉郡美里町","latitude":36.203345,"longitude":139.166767},{"prefecture":"埼玉県","city":"児玉郡神川町","latitude":36.130625,"longitude":139.051075},{"prefecture":"埼玉県","city":"児玉郡上里町","latitude":36.24152,"longitude":139.150036},{"prefecture":"埼玉県","city":"大里郡寄居町","latitude":36.094821,"longitude":139.216886},{"prefecture":"埼玉県","city":"南埼玉郡宮代町","latitude":36.049817,"longitude":139.691265},{"prefecture":"埼玉県","city":"北葛飾郡杉戸町","latitude":36.056405,"longitude":139.702815},{"prefecture":"埼玉県","city":"北葛飾郡松伏町","latitude":35.915423,"longitude":139.826592},{"prefecture":"千葉県","city":"千葉市中央区","latitude":35.616196,"longitude":140.132725},{"prefecture":"千葉県","city":"千葉市花見川区","latitude":35.657353,"longitude":140.091029},{"prefecture":"千葉県","city":"千葉市稲毛区","latitude":35.632655,"longitude":140.105346},{"prefecture":"千葉県","city":"千葉市若葉区","latitude":35.653386,"longitude":140.1345},{"prefecture":"千葉県","city":"千葉市緑区","latitude":35.529696,"longitude":140.269823},{"prefecture":"千葉県","city":"千葉市美浜区","latitude":35.629713,"longitude":140.064054},{"prefecture":"千葉県","city":"銚子市","latitude":35.734984,"longitude":140.790456},{"prefecture":"千葉県","city":"市川市","latitude":35.756186,"longitude":139.926708},{"prefecture":"千葉県","city":"船橋市","latitude":35.731294,"longitude":139.984841},{"prefecture":"千葉県","city":"館山市","latitude":34.92409,"longitude":139.8286},{"prefecture":"千葉県","city":"木更津市","latitude":35.386575,"longitude":139.916632},{"prefecture":"千葉県","city":"松戸市","latitude":35.793901,"longitude":139.906199},{"prefecture":"千葉県","city":"野田市","latitude":36.061966,"longitude":139.794382},{"prefecture":"千葉県","city":"茂原市","latitude":35.443656,"longitude":140.299095},{"prefecture":"千葉県","city":"成田市","latitude":35.761867,"longitude":140.262069},{"prefecture":"千葉県","city":"佐倉市","latitude":35.753557,"longitude":140.159477},{"prefecture":"千葉県","city":"東金市","latitude":35.536009,"longitude":140.400144},{"prefecture":"千葉県","city":"旭市","latitude":35.782921,"longitude":140.648846},{"prefecture":"千葉県","city":"習志野市","latitude":35.673642,"longitude":140.001914},{"prefecture":"千葉県","city":"柏市","latitude":35.916666,"longitude":139.92068},{"prefecture":"千葉県","city":"勝浦市","latitude":35.169099,"longitude":140.247897},{"prefecture":"千葉県","city":"市原市","latitude":35.489553,"longitude":140.210336},{"prefecture":"千葉県","city":"流山市","latitude":35.868658,"longitude":139.913748},{"prefecture":"千葉県","city":"八千代市","latitude":35.771972,"longitude":140.092925},{"prefecture":"千葉県","city":"我孫子市","latitude":35.849624,"longitude":140.121055},{"prefecture":"千葉県","city":"鴨川市","latitude":35.141486,"longitude":140.161968},{"prefecture":"千葉県","city":"鎌ヶ谷市","latitude":35.785893,"longitude":140.009996},{"prefecture":"千葉県","city":"君津市","latitude":35.215031,"longitude":140.081962},{"prefecture":"千葉県","city":"富津市","latitude":35.201051,"longitude":139.880138},{"prefecture":"千葉県","city":"浦安市","latitude":35.644934,"longitude":139.918976},{"prefecture":"千葉県","city":"四街道市","latitude":35.662563,"longitude":140.182957},{"prefecture":"千葉県","city":"袖ヶ浦市","latitude":35.375384,"longitude":140.027851},{"prefecture":"千葉県","city":"八街市","latitude":35.675317,"longitude":140.336397},{"prefecture":"千葉県","city":"印西市","latitude":35.761041,"longitude":140.152235},{"prefecture":"千葉県","city":"白井市","latitude":35.776788,"longitude":140.055206},{"prefecture":"千葉県","city":"富里市","latitude":35.751151,"longitude":140.348095},{"prefecture":"千葉県","city":"南房総市","latitude":35.03554,"longitude":139.996775},{"prefecture":"千葉県","city":"匝瑳市","latitude":35.738913,"longitude":140.533915},{"prefecture":"千葉県","city":"香取市","latitude":35.912148,"longitude":140.467817},{"prefecture":"千葉県","city":"山武市","latitude":35.604539,"longitude":140.358984},{"prefecture":"千葉県","city":"いすみ市","latitude":35.302627,"longitude":140.298044},{"prefecture":"千葉県","city":"大網白里市","latitude":35.524232,"longitude":140.294263},{"prefecture":"千葉県","city":"印旛郡酒々井町","latitude":35.746213,"longitude":140.266977},{"prefecture":"千葉県","city":"印旛郡栄町","latitude":35.849339,"longitude":140.221016},{"prefecture":"千葉県","city":"香取郡神崎町","latitude":35.903725,"longitude":140.423934},{"prefecture":"千葉県","city":"香取郡多古町","latitude":35.749433,"longitude":140.447046},{"prefecture":"千葉県","city":"香取郡東庄町","latitude":35.79578,"longitude":140.670594},{"prefecture":"千葉県","city":"山武郡九十九里町","latitude":35.529399,"longitude":140.398483},{"prefecture":"千葉県","city":"山武郡芝山町","latitude":35.72341,"longitude":140.400154},{"prefecture":"千葉県","city":"山武郡横芝光町","latitude":35.632532,"longitude":140.550574},{"prefecture":"千葉県","city":"長生郡一宮町","latitude":35.385494,"longitude":140.379083},{"prefecture":"千葉県","city":"長生郡睦沢町","latitude":35.35058,"longitude":140.337982},{"prefecture":"千葉県","city":"長生郡長生村","latitude":35.430641,"longitude":140.368212},{"prefecture":"千葉県","city":"長生郡白子町","latitude":35.465029,"longitude":140.396996},{"prefecture":"千葉県","city":"長生郡長柄町","latitude":35.475329,"longitude":140.240351},{"prefecture":"千葉県","city":"長生郡長南町","latitude":35.333204,"longitude":140.240162},{"prefecture":"千葉県","city":"夷隅郡大多喜町","latitude":35.212679,"longitude":140.180765},{"prefecture":"千葉県","city":"夷隅郡御宿町","latitude":35.202514,"longitude":140.31393},{"prefecture":"千葉県","city":"安房郡鋸南町","latitude":35.14558,"longitude":139.891292},{"prefecture":"東京都","city":"千代田区","latitude":35.69847,"longitude":139.749414},{"prefecture":"東京都","city":"中央区","latitude":35.667003,"longitude":139.777695},{"prefecture":"東京都","city":"港区","latitude":35.668589,"longitude":139.742334},{"prefecture":"東京都","city":"新宿区","latitude":35.690028,"longitude":139.719198},{"prefecture":"東京都","city":"文京区","latitude":35.717062,"longitude":139.732792},{"prefecture":"東京都","city":"台東区","latitude":35.701896,"longitude":139.774417},{"prefecture":"東京都","city":"墨田区","latitude":35.709683,"longitude":139.800404},{"prefecture":"東京都","city":"江東区","latitude":35.594021,"longitude":139.812206},{"prefecture":"東京都","city":"品川区","latitude":35.61999,"longitude":139.713784},{"prefecture":"東京都","city":"目黒区","latitude":35.648126,"longitude":139.6969},{"prefecture":"東京都","city":"大田区","latitude":35.578435,"longitude":139.707141},{"prefecture":"東京都","city":"世田谷区","latitude":35.655245,"longitude":139.641523},{"prefecture":"東京都","city":"渋谷区","latitude":35.668983,"longitude":139.683921},{"prefecture":"東京都","city":"中野区","latitude":35.712073,"longitude":139.667366},{"prefecture":"東京都","city":"杉並区","latitude":35.707654,"longitude":139.637362},{"prefecture":"東京都","city":"豊島区","latitude":35.735373,"longitude":139.712803},{"prefecture":"東京都","city":"北区","latitude":35.780738,"longitude":139.720619},{"prefecture":"東京都","city":"荒川区","latitude":35.73476,"longitude":139.786842},{"prefecture":"東京都","city":"板橋区","latitude":35.777076,"longitude":139.678961},{"prefecture":"東京都","city":"練馬区","latitude":35.734074,"longitude":139.675112},{"prefecture":"東京都","city":"足立区","latitude":35.774083,"longitude":139.812714},{"prefecture":"東京都","city":"葛飾区","latitude":35.743247,"longitude":139.85604},{"prefecture":"東京都","city":"江戸川区","latitude":35.643469,"longitude":139.877198},{"prefecture":"東京都","city":"八王子市","latitude":35.668622,"longitude":139.335707},{"prefecture":"東京都","city":"立川市","latitude":35.69944,"longitude":139.409026},{"prefecture":"東京都","city":"武蔵野市","latitude":35.710296,"longitude":139.577665},{"prefecture":"東京都","city":"三鷹市","latitude":35.692409,"longitude":139.548075},{"prefecture":"東京都","city":"青梅市","latitude":35.788363,"longitude":139.249327},{"prefecture":"東京都","city":"府中市","latitude":35.671318,"longitude":139.516508},{"prefecture":"東京都","city":"昭島市","latitude":35.708346,"longitude":139.375034},{"prefecture":"東京都","city":"調布市","latitude":35.639302,"longitude":139.545331},{"prefecture":"東京都","city":"町田市","latitude":35.612931,"longitude":139.300727},{"prefecture":"東京都","city":"小金井市","latitude":35.703596,"longitude":139.529839},{"prefecture":"東京都","city":"小平市","latitude":35.736041,"longitude":139.494306},{"prefecture":"東京都","city":"日野市","latitude":35.667537,"longitude":139.40431},{"prefecture":"東京都","city":"東村山市","latitude":35.760665,"longitude":139.496419},{"prefecture":"東京都","city":"国分寺市","latitude":35.698265,"longitude":139.474987},{"prefecture":"東京都","city":"国立市","latitude":35.685331,"longitude":139.42418},{"prefecture":"東京都","city":"福生市","latitude":35.723492,"longitude":139.343049},{"prefecture":"東京都","city":"狛江市","latitude":35.637363,"longitude":139.577442},{"prefecture":"東京都","city":"東大和市","latitude":35.757785,"longitude":139.414533},{"prefecture":"東京都","city":"清瀬市","latitude":35.791832,"longitude":139.534894},{"prefecture":"東京都","city":"東久留米市","latitude":35.770782,"longitude":139.542373},{"prefecture":"東京都","city":"武蔵村山市","latitude":35.740933,"longitude":139.366485},{"prefecture":"東京都","city":"多摩市","latitude":35.633987,"longitude":139.433071},{"prefecture":"東京都","city":"稲城市","latitude":35.644584,"longitude":139.477742},{"prefecture":"東京都","city":"羽村市","latitude":35.75369,"longitude":139.338544},{"prefecture":"東京都","city":"あきる野市","latitude":35.729685,"longitude":139.287963},{"prefecture":"東京都","city":"西東京市","latitude":35.737914,"longitude":139.548538},{"prefecture":"東京都","city":"西多摩郡瑞穂町","latitude":35.791095,"longitude":139.353454},{"prefecture":"東京都","city":"西多摩郡日の出町","latitude":35.764089,"longitude":139.216731},{"prefecture":"東京都","city":"西多摩郡檜原村","latitude":35.761614,"longitude":139.136832},{"prefecture":"東京都","city":"西多摩郡奥多摩町","latitude":35.804712,"longitude":139.166502},{"prefecture":"東京都","city":"大島町","latitude":34.778143,"longitude":139.387092},{"prefecture":"東京都","city":"新島村","latitude":34.369634,"longitude":139.262915},{"prefecture":"東京都","city":"神津島村","latitude":34.226217,"longitude":139.164036},{"prefecture":"東京都","city":"三宅村","latitude":34.064749,"longitude":139.496507},{"prefecture":"東京都","city":"御蔵島村","latitude":33.897291,"longitude":139.595894},{"prefecture":"東京都","city":"八丈町","latitude":33.122039,"longitude":139.692944},{"prefecture":"東京都","city":"青ヶ島村","latitude":32.466736,"longitude":139.761768},{"prefecture":"東京都","city":"小笠原村","latitude":24.28917,"longitude":153.980589},{"prefecture":"神奈川県","city":"横浜市鶴見区","latitude":35.501881,"longitude":139.696857},{"prefecture":"神奈川県","city":"横浜市神奈川区","latitude":35.471299,"longitude":139.629007},{"prefecture":"神奈川県","city":"横浜市西区","latitude":35.442951,"longitude":139.621182},{"prefecture":"神奈川県","city":"横浜市中区","latitude":35.445792,"longitude":139.639661},{"prefecture":"神奈川県","city":"横浜市南区","latitude":35.430505,"longitude":139.598494},{"prefecture":"神奈川県","city":"横浜市保土ケ谷区","latitude":35.489277,"longitude":139.55702},{"prefecture":"神奈川県","city":"横浜市磯子区","latitude":35.41199,"longitude":139.627157},{"prefecture":"神奈川県","city":"横浜市金沢区","latitude":35.329056,"longitude":139.596045},{"prefecture":"神奈川県","city":"横浜市港北区","latitude":35.520156,"longitude":139.63125},{"prefecture":"神奈川県","city":"横浜市戸塚区","latitude":35.421816,"longitude":139.545584},{"prefecture":"神奈川県","city":"横浜市港南区","latitude":35.409925,"longitude":139.593681},{"prefecture":"神奈川県","city":"横浜市旭区","latitude":35.460429,"longitude":139.561811},{"prefecture":"神奈川県","city":"横浜市緑区","latitude":35.509773,"longitude":139.542986},{"prefecture":"神奈川県","city":"横浜市瀬谷区","latitude":35.471715,"longitude":139.486819},{"prefecture":"神奈川県","city":"横浜市栄区","latitude":35.363498,"longitude":139.537961},{"prefecture":"神奈川県","city":"横浜市泉区","latitude":35.445449,"longitude":139.518684},{"prefecture":"神奈川県","city":"横浜市青葉区","latitude":35.545494,"longitude":139.518221},{"prefecture":"神奈川県","city":"横浜市都筑区","latitude":35.568492,"longitude":139.566995},{"prefecture":"神奈川県","city":"川崎市川崎区","latitude":35.506845,"longitude":139.705012},{"prefecture":"神奈川県","city":"川崎市幸区","latitude":35.542333,"longitude":139.692625},{"prefecture":"神奈川県","city":"川崎市中原区","latitude":35.562932,"longitude":139.643385},{"prefecture":"神奈川県","city":"川崎市高津区","latitude":35.574581,"longitude":139.625809},{"prefecture":"神奈川県","city":"川崎市多摩区","latitude":35.629363,"longitude":139.564793},{"prefecture":"神奈川県","city":"川崎市宮前区","latitude":35.578103,"longitude":139.578515},{"prefecture":"神奈川県","city":"川崎市麻生区","latitude":35.586147,"longitude":139.522268},{"prefecture":"神奈川県","city":"相模原市緑区","latitude":35.603162,"longitude":139.327102},{"prefecture":"神奈川県","city":"相模原市中央区","latitude":35.5652,"longitude":139.386963},{"prefecture":"神奈川県","city":"相模原市南区","latitude":35.525357,"longitude":139.428989},{"prefecture":"神奈川県","city":"横須賀市","latitude":35.25005,"longitude":139.595947},{"prefecture":"神奈川県","city":"平塚市","latitude":35.331099,"longitude":139.34736},{"prefecture":"神奈川県","city":"鎌倉市","latitude":35.304045,"longitude":139.525579},{"prefecture":"神奈川県","city":"藤沢市","latitude":35.340345,"longitude":139.491911},{"prefecture":"神奈川県","city":"小田原市","latitude":35.279196,"longitude":139.144301},{"prefecture":"神奈川県","city":"茅ヶ崎市","latitude":35.354603,"longitude":139.431798},{"prefecture":"神奈川県","city":"逗子市","latitude":35.310647,"longitude":139.592512},{"prefecture":"神奈川県","city":"三浦市","latitude":35.150318,"longitude":139.61767},{"prefecture":"神奈川県","city":"秦野市","latitude":35.447476,"longitude":139.204977},{"prefecture":"神奈川県","city":"厚木市","latitude":35.426835,"longitude":139.337906},{"prefecture":"神奈川県","city":"大和市","latitude":35.456388,"longitude":139.454711},{"prefecture":"神奈川県","city":"伊勢原市","latitude":35.413577,"longitude":139.317794},{"prefecture":"神奈川県","city":"海老名市","latitude":35.457576,"longitude":139.392298},{"prefecture":"神奈川県","city":"座間市","latitude":35.48738,"longitude":139.375107},{"prefecture":"神奈川県","city":"南足柄市","latitude":35.305105,"longitude":139.059677},{"prefecture":"神奈川県","city":"綾瀬市","latitude":35.452162,"longitude":139.435339},{"prefecture":"神奈川県","city":"三浦郡葉山町","latitude":35.26866,"longitude":139.589695},{"prefecture":"神奈川県","city":"高座郡寒川町","latitude":35.365845,"longitude":139.37102},{"prefecture":"神奈川県","city":"中郡大磯町","latitude":35.319942,"longitude":139.278874},{"prefecture":"神奈川県","city":"中郡二宮町","latitude":35.319944,"longitude":139.243056},{"prefecture":"神奈川県","city":"足柄上郡中井町","latitude":35.337848,"longitude":139.23278},{"prefecture":"神奈川県","city":"足柄上郡大井町","latitude":35.332826,"longitude":139.186144},{"prefecture":"神奈川県","city":"足柄上郡松田町","latitude":35.350289,"longitude":139.157257},{"prefecture":"神奈川県","city":"足柄上郡山北町","latitude":35.413404,"longitude":139.042582},{"prefecture":"神奈川県","city":"足柄上郡開成町","latitude":35.327166,"longitude":139.127223},{"prefecture":"神奈川県","city":"足柄下郡箱根町","latitude":35.219776,"longitude":139.043487},{"prefecture":"神奈川県","city":"足柄下郡真鶴町","latitude":35.172453,"longitude":139.131667},{"prefecture":"神奈川県","city":"足柄下郡湯河原町","latitude":35.170764,"longitude":139.075554},{"prefecture":"神奈川県","city":"愛甲郡愛川町","latitude":35.509118,"longitude":139.327741},{"prefecture":"神奈川県","city":"愛甲郡清川村","latitude":35.484274,"longitude":139.262291},{"prefecture":"新潟県","city":"新潟市北区","latitude":37.957509,"longitude":139.214946},{"prefecture":"新潟県","city":"新潟市東区","latitude":37.939391,"longitude":139.08109},{"prefecture":"新潟県","city":"新潟市中央区","latitude":37.914832,"longitude":139.042725},{"prefecture":"新潟県","city":"新潟市江南区","latitude":37.88125,"longitude":139.125034},{"prefecture":"新潟県","city":"新潟市秋葉区","latitude":37.770155,"longitude":139.169578},{"prefecture":"新潟県","city":"新潟市南区","latitude":37.773156,"longitude":139.06176},{"prefecture":"新潟県","city":"新潟市西区","latitude":37.901984,"longitude":138.992411},{"prefecture":"新潟県","city":"新潟市西蒲区","latitude":37.766026,"longitude":138.948451},{"prefecture":"新潟県","city":"長岡市","latitude":37.48846,"longitude":138.987571},{"prefecture":"新潟県","city":"三条市","latitude":37.450936,"longitude":139.129574},{"prefecture":"新潟県","city":"柏崎市","latitude":37.388216,"longitude":138.594792},{"prefecture":"新潟県","city":"新発田市","latitude":37.99895,"longitude":139.448989},{"prefecture":"新潟県","city":"小千谷市","latitude":37.310365,"longitude":138.829736},{"prefecture":"新潟県","city":"加茂市","latitude":37.628463,"longitude":139.124672},{"prefecture":"新潟県","city":"十日町市","latitude":37.078719,"longitude":138.78745},{"prefecture":"新潟県","city":"見附市","latitude":37.462589,"longitude":138.9513},{"prefecture":"新潟県","city":"村上市","latitude":38.207068,"longitude":139.443208},{"prefecture":"新潟県","city":"燕市","latitude":37.605588,"longitude":138.84488},{"prefecture":"新潟県","city":"糸魚川市","latitude":37.025248,"longitude":137.869604},{"prefecture":"新潟県","city":"妙高市","latitude":37.020382,"longitude":138.201054},{"prefecture":"新潟県","city":"五泉市","latitude":37.767441,"longitude":139.179613},{"prefecture":"新潟県","city":"上越市","latitude":37.084741,"longitude":138.259014},{"prefecture":"新潟県","city":"阿賀野市","latitude":37.821723,"longitude":139.212266},{"prefecture":"新潟県","city":"佐渡市","latitude":38.039151,"longitude":138.259062},{"prefecture":"新潟県","city":"魚沼市","latitude":37.233532,"longitude":138.95672},{"prefecture":"新潟県","city":"南魚沼市","latitude":37.150013,"longitude":138.927917},{"prefecture":"新潟県","city":"胎内市","latitude":38.063774,"longitude":139.392274},{"prefecture":"新潟県","city":"北蒲原郡聖籠町","latitude":37.959363,"longitude":139.283714},{"prefecture":"新潟県","city":"西蒲原郡弥彦村","latitude":37.703802,"longitude":138.860037},{"prefecture":"新潟県","city":"南蒲原郡田上町","latitude":37.69179,"longitude":139.039305},{"prefecture":"新潟県","city":"東蒲原郡阿賀町","latitude":37.689142,"longitude":139.419342},{"prefecture":"新潟県","city":"三島郡出雲崎町","latitude":37.549166,"longitude":138.717694},{"prefecture":"新潟県","city":"南魚沼郡湯沢町","latitude":36.890315,"longitude":138.761671},{"prefecture":"新潟県","city":"中魚沼郡津南町","latitude":37.05296,"longitude":138.664252},{"prefecture":"新潟県","city":"刈羽郡刈羽村","latitude":37.40767,"longitude":138.618865},{"prefecture":"新潟県","city":"岩船郡関川村","latitude":38.067066,"longitude":139.58218},{"prefecture":"新潟県","city":"岩船郡粟島浦村","latitude":38.465471,"longitude":139.251767},{"prefecture":"富山県","city":"富山市","latitude":36.497666,"longitude":137.073816},{"prefecture":"富山県","city":"高岡市","latitude":36.776247,"longitude":137.030571},{"prefecture":"富山県","city":"魚津市","latitude":36.76276,"longitude":137.533704},{"prefecture":"富山県","city":"氷見市","latitude":36.783138,"longitude":136.894709},{"prefecture":"富山県","city":"滑川市","latitude":36.767349,"longitude":137.390151},{"prefecture":"富山県","city":"黒部市","latitude":36.837929,"longitude":137.516738},{"prefecture":"富山県","city":"砺波市","latitude":36.600917,"longitude":137.028647},{"prefecture":"富山県","city":"小矢部市","latitude":36.721278,"longitude":136.866161},{"prefecture":"富山県","city":"南砺市","latitude":36.5544,"longitude":136.976565},{"prefecture":"富山県","city":"射水市","latitude":36.755582,"longitude":137.149791},{"prefecture":"富山県","city":"中新川郡舟橋村","latitude":36.705675,"longitude":137.295887},{"prefecture":"富山県","city":"中新川郡上市町","latitude":36.645389,"longitude":137.406631},{"prefecture":"富山県","city":"中新川郡立山町","latitude":36.675798,"longitude":137.28883},{"prefecture":"富山県","city":"下新川郡入善町","latitude":36.948413,"longitude":137.521619},{"prefecture":"富山県","city":"下新川郡朝日町","latitude":36.946487,"longitude":137.552158},{"prefecture":"石川県","city":"金沢市","latitude":36.556854,"longitude":136.658046},{"prefecture":"石川県","city":"七尾市","latitude":37.13483,"longitude":136.793545},{"prefecture":"石川県","city":"小松市","latitude":36.272102,"longitude":136.560818},{"prefecture":"石川県","city":"輪島市","latitude":37.339129,"longitude":136.845576},{"prefecture":"石川県","city":"珠洲市","latitude":37.438626,"longitude":137.264129},{"prefecture":"石川県","city":"加賀市","latitude":36.221752,"longitude":136.461985},{"prefecture":"石川県","city":"羽咋市","latitude":36.922394,"longitude":136.818396},{"prefecture":"石川県","city":"かほく市","latitude":36.692635,"longitude":136.690504},{"prefecture":"石川県","city":"白山市","latitude":36.455086,"longitude":136.63971},{"prefecture":"石川県","city":"能美市","latitude":36.441906,"longitude":136.598053},{"prefecture":"石川県","city":"野々市市","latitude":36.510221,"longitude":136.612654},{"prefecture":"石川県","city":"能美郡川北町","latitude":36.464769,"longitude":136.57203},{"prefecture":"石川県","city":"河北郡津幡町","latitude":36.657286,"longitude":136.764655},{"prefecture":"石川県","city":"河北郡内灘町","latitude":36.640364,"longitude":136.646542},{"prefecture":"石川県","city":"羽咋郡志賀町","latitude":37.188471,"longitude":136.736021},{"prefecture":"石川県","city":"羽咋郡宝達志水町","latitude":36.791269,"longitude":136.778056},{"prefecture":"石川県","city":"鹿島郡中能登町","latitude":36.938542,"longitude":136.903142},{"prefecture":"石川県","city":"鳳珠郡穴水町","latitude":37.255672,"longitude":136.913649},{"prefecture":"石川県","city":"鳳珠郡能登町","latitude":37.267687,"longitude":137.084303},{"prefecture":"福井県","city":"福井市","latitude":36.083808,"longitude":136.076794},{"prefecture":"福井県","city":"敦賀市","latitude":35.655513,"longitude":136.06831},{"prefecture":"福井県","city":"小浜市","latitude":35.498027,"longitude":135.741451},{"prefecture":"福井県","city":"大野市","latitude":35.968617,"longitude":136.718617},{"prefecture":"福井県","city":"勝山市","latitude":36.139501,"longitude":136.542118},{"prefecture":"福井県","city":"鯖江市","latitude":35.944274,"longitude":136.187465},{"prefecture":"福井県","city":"あわら市","latitude":36.203048,"longitude":136.226126},{"prefecture":"福井県","city":"越前市","latitude":35.902287,"longitude":136.181738},{"prefecture":"福井県","city":"坂井市","latitude":36.162845,"longitude":136.350972},{"prefecture":"福井県","city":"吉田郡永平寺町","latitude":36.06422,"longitude":136.289397},{"prefecture":"福井県","city":"今立郡池田町","latitude":35.940614,"longitude":136.410919},{"prefecture":"福井県","city":"南条郡南越前町","latitude":35.848159,"longitude":136.187192},{"prefecture":"福井県","city":"丹生郡越前町","latitude":36.019402,"longitude":136.075715},{"prefecture":"福井県","city":"三方郡美浜町","latitude":35.592748,"longitude":135.918235},{"prefecture":"福井県","city":"大飯郡高浜町","latitude":35.485476,"longitude":135.599963},{"prefecture":"福井県","city":"大飯郡おおい町","latitude":35.443055,"longitude":135.561644},{"prefecture":"福井県","city":"三方上中郡若狭町","latitude":35.525772,"longitude":135.909444},{"prefecture":"山梨県","city":"甲府市","latitude":35.657086,"longitude":138.564392},{"prefecture":"山梨県","city":"富士吉田市","latitude":35.495458,"longitude":138.793013},{"prefecture":"山梨県","city":"都留市","latitude":35.544449,"longitude":139.000131},{"prefecture":"山梨県","city":"山梨市","latitude":35.715161,"longitude":138.678567},{"prefecture":"山梨県","city":"大月市","latitude":35.604266,"longitude":138.955175},{"prefecture":"山梨県","city":"韮崎市","latitude":35.730049,"longitude":138.484808},{"prefecture":"山梨県","city":"南アルプス市","latitude":35.664603,"longitude":138.376584},{"prefecture":"山梨県","city":"北杜市","latitude":35.889777,"longitude":138.424306},{"prefecture":"山梨県","city":"甲斐市","latitude":35.714227,"longitude":138.500321},{"prefecture":"山梨県","city":"笛吹市","latitude":35.597014,"longitude":138.613935},{"prefecture":"山梨県","city":"上野原市","latitude":35.568936,"longitude":139.067339},{"prefecture":"山梨県","city":"甲州市","latitude":35.637053,"longitude":138.743848},{"prefecture":"山梨県","city":"中央市","latitude":35.581455,"longitude":138.543394},{"prefecture":"山梨県","city":"西八代郡市川三郷町","latitude":35.496541,"longitude":138.472115},{"prefecture":"山梨県","city":"南巨摩郡早川町","latitude":35.376355,"longitude":138.376465},{"prefecture":"山梨県","city":"南巨摩郡身延町","latitude":35.471874,"longitude":138.472933},{"prefecture":"山梨県","city":"南巨摩郡南部町","latitude":35.260215,"longitude":138.501331},{"prefecture":"山梨県","city":"南巨摩郡富士川町","latitude":35.573507,"longitude":138.434611},{"prefecture":"山梨県","city":"中巨摩郡昭和町","latitude":35.622814,"longitude":138.522196},{"prefecture":"山梨県","city":"南都留郡道志村","latitude":35.480205,"longitude":138.995057},{"prefecture":"山梨県","city":"南都留郡西桂町","latitude":35.521115,"longitude":138.843913},{"prefecture":"山梨県","city":"南都留郡忍野村","latitude":35.461574,"longitude":138.870388},{"prefecture":"山梨県","city":"南都留郡山中湖村","latitude":35.424642,"longitude":138.891767},{"prefecture":"山梨県","city":"南都留郡鳴沢村","latitude":35.486239,"longitude":138.721975},{"prefecture":"山梨県","city":"南都留郡富士河口湖町","latitude":35.508925,"longitude":138.776485},{"prefecture":"山梨県","city":"北都留郡小菅村","latitude":35.750856,"longitude":138.949056},{"prefecture":"山梨県","city":"北都留郡丹波山村","latitude":35.793247,"longitude":138.913512},{"prefecture":"長野県","city":"長野市","latitude":36.68853,"longitude":138.247847},{"prefecture":"長野県","city":"松本市","latitude":36.270421,"longitude":138.037174},{"prefecture":"長野県","city":"上田市","latitude":36.383098,"longitude":138.285921},{"prefecture":"長野県","city":"岡谷市","latitude":36.079917,"longitude":138.032991},{"prefecture":"長野県","city":"飯田市","latitude":35.581654,"longitude":137.751701},{"prefecture":"長野県","city":"諏訪市","latitude":36.077993,"longitude":138.139276},{"prefecture":"長野県","city":"須坂市","latitude":36.650823,"longitude":138.276516},{"prefecture":"長野県","city":"小諸市","latitude":36.326564,"longitude":138.41693},{"prefecture":"長野県","city":"伊那市","latitude":35.932476,"longitude":138.112005},{"prefecture":"長野県","city":"駒ヶ根市","latitude":35.732245,"longitude":137.938003},{"prefecture":"長野県","city":"中野市","latitude":36.756523,"longitude":138.375362},{"prefecture":"長野県","city":"大町市","latitude":36.52463,"longitude":137.870628},{"prefecture":"長野県","city":"飯山市","latitude":36.969008,"longitude":138.413004},{"prefecture":"長野県","city":"茅野市","latitude":36.002839,"longitude":138.131367},{"prefecture":"長野県","city":"塩尻市","latitude":36.094131,"longitude":137.996876},{"prefecture":"長野県","city":"佐久市","latitude":36.233296,"longitude":138.462734},{"prefecture":"長野県","city":"千曲市","latitude":36.469262,"longitude":138.144373},{"prefecture":"長野県","city":"東御市","latitude":36.361361,"longitude":138.330531},{"prefecture":"長野県","city":"安曇野市","latitude":36.345441,"longitude":137.934429},{"prefecture":"長野県","city":"南佐久郡小海町","latitude":36.091909,"longitude":138.449208},{"prefecture":"長野県","city":"南佐久郡川上村","latitude":35.945962,"longitude":138.560005},{"prefecture":"長野県","city":"南佐久郡南牧村","latitude":35.917033,"longitude":138.471156},{"prefecture":"長野県","city":"南佐久郡南相木村","latitude":36.025475,"longitude":138.56727},{"prefecture":"長野県","city":"南佐久郡北相木村","latitude":36.074808,"longitude":138.606821},{"prefecture":"長野県","city":"南佐久郡佐久穂町","latitude":36.126216,"longitude":138.377626},{"prefecture":"長野県","city":"北佐久郡軽井沢町","latitude":36.368823,"longitude":138.656382},{"prefecture":"長野県","city":"北佐久郡御代田町","latitude":36.36715,"longitude":138.492002},{"prefecture":"長野県","city":"北佐久郡立科町","latitude":36.293302,"longitude":138.331845},{"prefecture":"長野県","city":"小県郡青木村","latitude":36.357748,"longitude":138.12647},{"prefecture":"長野県","city":"小県郡長和町","latitude":36.2206,"longitude":138.250423},{"prefecture":"長野県","city":"諏訪郡下諏訪町","latitude":36.066935,"longitude":138.105165},{"prefecture":"長野県","city":"諏訪郡富士見町","latitude":35.89655,"longitude":138.255691},{"prefecture":"長野県","city":"諏訪郡原村","latitude":35.947991,"longitude":138.213451},{"prefecture":"長野県","city":"上伊那郡辰野町","latitude":35.973234,"longitude":138.003146},{"prefecture":"長野県","city":"上伊那郡箕輪町","latitude":35.902492,"longitude":138.009879},{"prefecture":"長野県","city":"上伊那郡飯島町","latitude":35.68409,"longitude":137.897373},{"prefecture":"長野県","city":"上伊那郡南箕輪村","latitude":35.864863,"longitude":137.960291},{"prefecture":"長野県","city":"上伊那郡中川村","latitude":35.641711,"longitude":137.968361},{"prefecture":"長野県","city":"上伊那郡宮田村","latitude":35.762514,"longitude":137.951224},{"prefecture":"長野県","city":"下伊那郡松川町","latitude":35.579231,"longitude":137.94691},{"prefecture":"長野県","city":"下伊那郡高森町","latitude":35.574931,"longitude":137.866626},{"prefecture":"長野県","city":"下伊那郡阿南町","latitude":35.339317,"longitude":137.831321},{"prefecture":"長野県","city":"下伊那郡阿智村","latitude":35.454668,"longitude":137.750308},{"prefecture":"長野県","city":"下伊那郡平谷村","latitude":35.325861,"longitude":137.627987},{"prefecture":"長野県","city":"下伊那郡根羽村","latitude":35.256947,"longitude":137.600101},{"prefecture":"長野県","city":"下伊那郡下條村","latitude":35.372441,"longitude":137.764185},{"prefecture":"長野県","city":"下伊那郡売木村","latitude":35.269995,"longitude":137.709784},{"prefecture":"長野県","city":"下伊那郡天龍村","latitude":35.251689,"longitude":137.798037},{"prefecture":"長野県","city":"下伊那郡泰阜村","latitude":35.38929,"longitude":137.833035},{"prefecture":"長野県","city":"下伊那郡喬木村","latitude":35.505654,"longitude":137.869245},{"prefecture":"長野県","city":"下伊那郡豊丘村","latitude":35.562012,"longitude":137.945166},{"prefecture":"長野県","city":"下伊那郡大鹿村","latitude":35.531614,"longitude":138.077124},{"prefecture":"長野県","city":"木曽郡上松町","latitude":35.804126,"longitude":137.692023},{"prefecture":"長野県","city":"木曽郡南木曽町","latitude":35.565104,"longitude":137.60396},{"prefecture":"長野県","city":"木曽郡木祖村","latitude":36.017795,"longitude":137.751905},{"prefecture":"長野県","city":"木曽郡王滝村","latitude":35.810304,"longitude":137.546571},{"prefecture":"長野県","city":"木曽郡大桑村","latitude":35.71781,"longitude":137.677157},{"prefecture":"長野県","city":"木曽郡木曽町","latitude":35.969403,"longitude":137.656763},{"prefecture":"長野県","city":"東筑摩郡麻績村","latitude":36.458354,"longitude":138.047985},{"prefecture":"長野県","city":"東筑摩郡生坂村","latitude":36.422593,"longitude":137.927618},{"prefecture":"長野県","city":"東筑摩郡山形村","latitude":36.152162,"longitude":137.871595},{"prefecture":"長野県","city":"東筑摩郡朝日村","latitude":36.102406,"longitude":137.803391},{"prefecture":"長野県","city":"東筑摩郡筑北村","latitude":36.385488,"longitude":138.054962},{"prefecture":"長野県","city":"北安曇郡池田町","latitude":36.374988,"longitude":137.896517},{"prefecture":"長野県","city":"北安曇郡松川村","latitude":36.410962,"longitude":137.862022},{"prefecture":"長野県","city":"北安曇郡白馬村","latitude":36.708415,"longitude":137.838605},{"prefecture":"長野県","city":"北安曇郡小谷村","latitude":36.853841,"longitude":137.979741},{"prefecture":"長野県","city":"埴科郡坂城町","latitude":36.456041,"longitude":138.173201},{"prefecture":"長野県","city":"上高井郡小布施町","latitude":36.699204,"longitude":138.325914},{"prefecture":"長野県","city":"上高井郡高山村","latitude":36.691809,"longitude":138.366909},{"prefecture":"長野県","city":"下高井郡山ノ内町","latitude":36.732142,"longitude":138.415928},{"prefecture":"長野県","city":"下高井郡木島平村","latitude":36.826644,"longitude":138.49267},{"prefecture":"長野県","city":"下高井郡野沢温泉村","latitude":36.961662,"longitude":138.468692},{"prefecture":"長野県","city":"上水内郡信濃町","latitude":36.847206,"longitude":138.248278},{"prefecture":"長野県","city":"上水内郡小川村","latitude":36.617257,"longitude":137.925932},{"prefecture":"長野県","city":"上水内郡飯綱町","latitude":36.755504,"longitude":138.260172},{"prefecture":"長野県","city":"下水内郡栄村","latitude":36.998252,"longitude":138.56147},{"prefecture":"岐阜県","city":"岐阜市","latitude":35.428238,"longitude":136.770409},{"prefecture":"岐阜県","city":"大垣市","latitude":35.334081,"longitude":136.596598},{"prefecture":"岐阜県","city":"高山市","latitude":36.241638,"longitude":137.444278},{"prefecture":"岐阜県","city":"多治見市","latitude":35.308669,"longitude":137.084298},{"prefecture":"岐阜県","city":"関市","latitude":35.470977,"longitude":136.883735},{"prefecture":"岐阜県","city":"中津川市","latitude":35.401929,"longitude":137.516414},{"prefecture":"岐阜県","city":"美濃市","latitude":35.547411,"longitude":136.908472},{"prefecture":"岐阜県","city":"瑞浪市","latitude":35.383997,"longitude":137.230108},{"prefecture":"岐阜県","city":"羽島市","latitude":35.30191,"longitude":136.688662},{"prefecture":"岐阜県","city":"恵那市","latitude":35.298233,"longitude":137.395775},{"prefecture":"岐阜県","city":"美濃加茂市","latitude":35.459458,"longitude":137.005206},{"prefecture":"岐阜県","city":"土岐市","latitude":35.356349,"longitude":137.175795},{"prefecture":"岐阜県","city":"各務原市","latitude":35.413923,"longitude":136.931102},{"prefecture":"岐阜県","city":"可児市","latitude":35.399502,"longitude":137.046815},{"prefecture":"岐阜県","city":"山県市","latitude":35.612147,"longitude":136.78258},{"prefecture":"岐阜県","city":"瑞穂市","latitude":35.370569,"longitude":136.666235},{"prefecture":"岐阜県","city":"飛騨市","latitude":36.405702,"longitude":137.128635},{"prefecture":"岐阜県","city":"本巣市","latitude":35.448354,"longitude":136.674655},{"prefecture":"岐阜県","city":"郡上市","latitude":35.922028,"longitude":136.939302},{"prefecture":"岐阜県","city":"下呂市","latitude":35.788396,"longitude":137.189525},{"prefecture":"岐阜県","city":"海津市","latitude":35.222226,"longitude":136.598451},{"prefecture":"岐阜県","city":"羽島郡岐南町","latitude":35.378917,"longitude":136.765645},{"prefecture":"岐阜県","city":"羽島郡笠松町","latitude":35.366834,"longitude":136.764894},{"prefecture":"岐阜県","city":"養老郡養老町","latitude":35.256983,"longitude":136.584193},{"prefecture":"岐阜県","city":"不破郡垂井町","latitude":35.37403,"longitude":136.529323},{"prefecture":"岐阜県","city":"不破郡関ケ原町","latitude":35.329498,"longitude":136.434151},{"prefecture":"岐阜県","city":"安八郡神戸町","latitude":35.428152,"longitude":136.611172},{"prefecture":"岐阜県","city":"安八郡輪之内町","latitude":35.293989,"longitude":136.6606},{"prefecture":"岐阜県","city":"安八郡安八町","latitude":35.325597,"longitude":136.658055},{"prefecture":"岐阜県","city":"揖斐郡揖斐川町","latitude":35.477785,"longitude":136.527038},{"prefecture":"岐阜県","city":"揖斐郡大野町","latitude":35.440186,"longitude":136.62829},{"prefecture":"岐阜県","city":"揖斐郡池田町","latitude":35.438732,"longitude":136.569528},{"prefecture":"岐阜県","city":"本巣郡北方町","latitude":35.440742,"longitude":136.694116},{"prefecture":"岐阜県","city":"加茂郡坂祝町","latitude":35.432689,"longitude":137.002414},{"prefecture":"岐阜県","city":"加茂郡富加町","latitude":35.496609,"longitude":136.958108},{"prefecture":"岐阜県","city":"加茂郡川辺町","latitude":35.500365,"longitude":137.101341},{"prefecture":"岐阜県","city":"加茂郡七宗町","latitude":35.589429,"longitude":137.082972},{"prefecture":"岐阜県","city":"加茂郡八百津町","latitude":35.463249,"longitude":137.126773},{"prefecture":"岐阜県","city":"加茂郡白川町","latitude":35.554193,"longitude":137.257586},{"prefecture":"岐阜県","city":"加茂郡東白川村","latitude":35.652923,"longitude":137.385277},{"prefecture":"岐阜県","city":"可児郡御嵩町","latitude":35.431366,"longitude":137.153978},{"prefecture":"岐阜県","city":"大野郡白川村","latitude":36.202267,"longitude":136.879482},{"prefecture":"静岡県","city":"静岡市葵区","latitude":35.014689,"longitude":138.350347},{"prefecture":"静岡県","city":"静岡市駿河区","latitude":34.924517,"longitude":138.377334},{"prefecture":"静岡県","city":"静岡市清水区","latitude":35.111877,"longitude":138.552591},{"prefecture":"静岡県","city":"浜松市中区","latitude":34.755567,"longitude":137.692503},{"prefecture":"静岡県","city":"浜松市東区","latitude":34.767533,"longitude":137.753938},{"prefecture":"静岡県","city":"浜松市西区","latitude":34.745976,"longitude":137.67045},{"prefecture":"静岡県","city":"浜松市南区","latitude":34.716112,"longitude":137.781322},{"prefecture":"静岡県","city":"浜松市北区","latitude":34.834189,"longitude":137.675266},{"prefecture":"静岡県","city":"浜松市浜北区","latitude":34.882646,"longitude":137.747362},{"prefecture":"静岡県","city":"浜松市天竜区","latitude":34.865305,"longitude":137.780628},{"prefecture":"静岡県","city":"沼津市","latitude":35.079063,"longitude":138.867458},{"prefecture":"静岡県","city":"熱海市","latitude":35.106068,"longitude":139.046549},{"prefecture":"静岡県","city":"三島市","latitude":35.159267,"longitude":138.964839},{"prefecture":"静岡県","city":"富士宮市","latitude":35.25145,"longitude":138.588399},{"prefecture":"静岡県","city":"伊東市","latitude":34.864229,"longitude":139.074956},{"prefecture":"静岡県","city":"島田市","latitude":34.840502,"longitude":138.157983},{"prefecture":"静岡県","city":"富士市","latitude":35.151965,"longitude":138.68186},{"prefecture":"静岡県","city":"磐田市","latitude":34.66613,"longitude":137.834675},{"prefecture":"静岡県","city":"焼津市","latitude":34.804532,"longitude":138.259178},{"prefecture":"静岡県","city":"掛川市","latitude":34.790585,"longitude":138.056835},{"prefecture":"静岡県","city":"藤枝市","latitude":34.856244,"longitude":138.248834},{"prefecture":"静岡県","city":"御殿場市","latitude":35.283449,"longitude":138.884754},{"prefecture":"静岡県","city":"袋井市","latitude":34.710658,"longitude":137.91358},{"prefecture":"静岡県","city":"下田市","latitude":34.674554,"longitude":138.951361},{"prefecture":"静岡県","city":"裾野市","latitude":35.207141,"longitude":138.906795},{"prefecture":"静岡県","city":"湖西市","latitude":34.735248,"longitude":137.491276},{"prefecture":"静岡県","city":"伊豆市","latitude":34.933156,"longitude":138.926449},{"prefecture":"静岡県","city":"御前崎市","latitude":34.643948,"longitude":138.127084},{"prefecture":"静岡県","city":"菊川市","latitude":34.75696,"longitude":138.094911},{"prefecture":"静岡県","city":"伊豆の国市","latitude":35.02655,"longitude":138.93921},{"prefecture":"静岡県","city":"牧之原市","latitude":34.708412,"longitude":138.200062},{"prefecture":"静岡県","city":"賀茂郡東伊豆町","latitude":34.785806,"longitude":139.035565},{"prefecture":"静岡県","city":"賀茂郡河津町","latitude":34.78358,"longitude":138.907753},{"prefecture":"静岡県","city":"賀茂郡南伊豆町","latitude":34.665353,"longitude":138.886337},{"prefecture":"静岡県","city":"賀茂郡松崎町","latitude":34.765474,"longitude":138.838334},{"prefecture":"静岡県","city":"賀茂郡西伊豆町","latitude":34.828137,"longitude":138.779743},{"prefecture":"静岡県","city":"田方郡函南町","latitude":35.112061,"longitude":138.96945},{"prefecture":"静岡県","city":"駿東郡清水町","latitude":35.096057,"longitude":138.908426},{"prefecture":"静岡県","city":"駿東郡長泉町","latitude":35.145472,"longitude":138.902719},{"prefecture":"静岡県","city":"駿東郡小山町","latitude":35.350726,"longitude":138.962001},{"prefecture":"静岡県","city":"榛原郡吉田町","latitude":34.793425,"longitude":138.252921},{"prefecture":"静岡県","city":"榛原郡川根本町","latitude":35.086945,"longitude":138.120772},{"prefecture":"静岡県","city":"周智郡森町","latitude":34.89211,"longitude":137.964764},{"prefecture":"愛知県","city":"名古屋市千種区","latitude":35.152935,"longitude":136.964961},{"prefecture":"愛知県","city":"名古屋市東区","latitude":35.196773,"longitude":136.946962},{"prefecture":"愛知県","city":"名古屋市北区","latitude":35.211526,"longitude":136.922879},{"prefecture":"愛知県","city":"名古屋市西区","latitude":35.203607,"longitude":136.876986},{"prefecture":"愛知県","city":"名古屋市中村区","latitude":35.149189,"longitude":136.85319},{"prefecture":"愛知県","city":"名古屋市中区","latitude":35.170061,"longitude":136.921741},{"prefecture":"愛知県","city":"名古屋市昭和区","latitude":35.155586,"longitude":136.92985},{"prefecture":"愛知県","city":"名古屋市瑞穂区","latitude":35.132011,"longitude":136.955457},{"prefecture":"愛知県","city":"名古屋市熱田区","latitude":35.121222,"longitude":136.913893},{"prefecture":"愛知県","city":"名古屋市中川区","latitude":35.133953,"longitude":136.8768},{"prefecture":"愛知県","city":"名古屋市港区","latitude":35.100641,"longitude":136.837166},{"prefecture":"愛知県","city":"名古屋市南区","latitude":35.102404,"longitude":136.941146},{"prefecture":"愛知県","city":"名古屋市守山区","latitude":35.24887,"longitude":137.046853},{"prefecture":"愛知県","city":"名古屋市緑区","latitude":35.064156,"longitude":136.968766},{"prefecture":"愛知県","city":"名古屋市名東区","latitude":35.14059,"longitude":137.009807},{"prefecture":"愛知県","city":"名古屋市天白区","latitude":35.143845,"longitude":136.977842},{"prefecture":"愛知県","city":"豊橋市","latitude":34.78677,"longitude":137.423079},{"prefecture":"愛知県","city":"岡崎市","latitude":34.958123,"longitude":137.171416},{"prefecture":"愛知県","city":"一宮市","latitude":35.295331,"longitude":136.816885},{"prefecture":"愛知県","city":"瀬戸市","latitude":35.210186,"longitude":137.080485},{"prefecture":"愛知県","city":"半田市","latitude":34.913058,"longitude":136.905717},{"prefecture":"愛知県","city":"春日井市","latitude":35.221051,"longitude":136.957753},{"prefecture":"愛知県","city":"豊川市","latitude":34.871415,"longitude":137.307875},{"prefecture":"愛知県","city":"津島市","latitude":35.178377,"longitude":136.745632},{"prefecture":"愛知県","city":"碧南市","latitude":34.905079,"longitude":136.98845},{"prefecture":"愛知県","city":"刈谷市","latitude":34.991058,"longitude":137.010967},{"prefecture":"愛知県","city":"豊田市","latitude":35.195402,"longitude":137.400544},{"prefecture":"愛知県","city":"安城市","latitude":34.98485,"longitude":137.100357},{"prefecture":"愛知県","city":"西尾市","latitude":34.863584,"longitude":137.049631},{"prefecture":"愛知県","city":"蒲郡市","latitude":34.825785,"longitude":137.218621},{"prefecture":"愛知県","city":"犬山市","latitude":35.370836,"longitude":136.928729},{"prefecture":"愛知県","city":"常滑市","latitude":34.893029,"longitude":136.873084},{"prefecture":"愛知県","city":"江南市","latitude":35.327418,"longitude":136.851935},{"prefecture":"愛知県","city":"小牧市","latitude":35.295589,"longitude":136.889439},{"prefecture":"愛知県","city":"稲沢市","latitude":35.24916,"longitude":136.780322},{"prefecture":"愛知県","city":"新城市","latitude":34.900324,"longitude":137.499859},{"prefecture":"愛知県","city":"東海市","latitude":35.049591,"longitude":136.90444},{"prefecture":"愛知県","city":"大府市","latitude":35.005016,"longitude":136.965326},{"prefecture":"愛知県","city":"知多市","latitude":34.971648,"longitude":136.901659},{"prefecture":"愛知県","city":"知立市","latitude":35.017972,"longitude":137.040964},{"prefecture":"愛知県","city":"尾張旭市","latitude":35.209091,"longitude":137.009529},{"prefecture":"愛知県","city":"高浜市","latitude":34.925833,"longitude":136.981389},{"prefecture":"愛知県","city":"岩倉市","latitude":35.276346,"longitude":136.871761},{"prefecture":"愛知県","city":"豊明市","latitude":35.044668,"longitude":137.012116},{"prefecture":"愛知県","city":"日進市","latitude":35.121563,"longitude":137.016715},{"prefecture":"愛知県","city":"田原市","latitude":34.658632,"longitude":137.310072},{"prefecture":"愛知県","city":"愛西市","latitude":35.202512,"longitude":136.697666},{"prefecture":"愛知県","city":"清須市","latitude":35.22464,"longitude":136.842613},{"prefecture":"愛知県","city":"北名古屋市","latitude":35.261576,"longitude":136.859189},{"prefecture":"愛知県","city":"弥富市","latitude":35.07744,"longitude":136.756763},{"prefecture":"愛知県","city":"みよし市","latitude":35.10181,"longitude":137.100743},{"prefecture":"愛知県","city":"あま市","latitude":35.206201,"longitude":136.818714},{"prefecture":"愛知県","city":"長久手市","latitude":35.181968,"longitude":137.047303},{"prefecture":"愛知県","city":"愛知郡東郷町","latitude":35.105689,"longitude":137.046056},{"prefecture":"愛知県","city":"西春日井郡豊山町","latitude":35.246843,"longitude":136.91692},{"prefecture":"愛知県","city":"丹羽郡大口町","latitude":35.344326,"longitude":136.91637},{"prefecture":"愛知県","city":"丹羽郡扶桑町","latitude":35.365946,"longitude":136.903792},{"prefecture":"愛知県","city":"海部郡大治町","latitude":35.168387,"longitude":136.820247},{"prefecture":"愛知県","city":"海部郡蟹江町","latitude":35.139381,"longitude":136.790091},{"prefecture":"愛知県","city":"海部郡飛島村","latitude":35.070068,"longitude":136.820968},{"prefecture":"愛知県","city":"知多郡阿久比町","latitude":34.94034,"longitude":136.907487},{"prefecture":"愛知県","city":"知多郡東浦町","latitude":34.994575,"longitude":136.964281},{"prefecture":"愛知県","city":"知多郡南知多町","latitude":34.74581,"longitude":136.880159},{"prefecture":"愛知県","city":"知多郡美浜町","latitude":34.804393,"longitude":136.88181},{"prefecture":"愛知県","city":"知多郡武豊町","latitude":34.823662,"longitude":136.901793},{"prefecture":"愛知県","city":"額田郡幸田町","latitude":34.847328,"longitude":137.157443},{"prefecture":"愛知県","city":"北設楽郡設楽町","latitude":35.038195,"longitude":137.606529},{"prefecture":"愛知県","city":"北設楽郡東栄町","latitude":35.041122,"longitude":137.709001},{"prefecture":"愛知県","city":"北設楽郡豊根村","latitude":35.152641,"longitude":137.691099},{"prefecture":"三重県","city":"津市","latitude":34.698419,"longitude":136.512153},{"prefecture":"三重県","city":"四日市市","latitude":34.938891,"longitude":136.610669},{"prefecture":"三重県","city":"伊勢市","latitude":34.462942,"longitude":136.71743},{"prefecture":"三重県","city":"松阪市","latitude":34.560537,"longitude":136.504433},{"prefecture":"三重県","city":"桑名市","latitude":35.162513,"longitude":136.646203},{"prefecture":"三重県","city":"鈴鹿市","latitude":34.872724,"longitude":136.586665},{"prefecture":"三重県","city":"名張市","latitude":34.653637,"longitude":136.108744},{"prefecture":"三重県","city":"尾鷲市","latitude":34.072545,"longitude":136.181405},{"prefecture":"三重県","city":"亀山市","latitude":34.869116,"longitude":136.45795},{"prefecture":"三重県","city":"鳥羽市","latitude":34.476952,"longitude":136.836214},{"prefecture":"三重県","city":"熊野市","latitude":33.988403,"longitude":136.108446},{"prefecture":"三重県","city":"いなべ市","latitude":35.110331,"longitude":136.563477},{"prefecture":"三重県","city":"志摩市","latitude":34.348085,"longitude":136.763736},{"prefecture":"三重県","city":"伊賀市","latitude":34.868503,"longitude":136.172631},{"prefecture":"三重県","city":"桑名郡木曽岬町","latitude":35.064799,"longitude":136.742445},{"prefecture":"三重県","city":"員弁郡東員町","latitude":35.057238,"longitude":136.597147},{"prefecture":"三重県","city":"三重郡菰野町","latitude":35.020682,"longitude":136.543774},{"prefecture":"三重県","city":"三重郡朝日町","latitude":35.035443,"longitude":136.645787},{"prefecture":"三重県","city":"三重郡川越町","latitude":35.028618,"longitude":136.692969},{"prefecture":"三重県","city":"多気郡多気町","latitude":34.519128,"longitude":136.56702},{"prefecture":"三重県","city":"多気郡明和町","latitude":34.518022,"longitude":136.594541},{"prefecture":"三重県","city":"多気郡大台町","latitude":34.419273,"longitude":136.45838},{"prefecture":"三重県","city":"度会郡玉城町","latitude":34.511057,"longitude":136.640644},{"prefecture":"三重県","city":"度会郡度会町","latitude":34.428338,"longitude":136.589764},{"prefecture":"三重県","city":"度会郡大紀町","latitude":34.334242,"longitude":136.420146},{"prefecture":"三重県","city":"度会郡南伊勢町","latitude":34.260002,"longitude":136.595635},{"prefecture":"三重県","city":"北牟婁郡紀北町","latitude":34.144316,"longitude":136.145435},{"prefecture":"三重県","city":"南牟婁郡御浜町","latitude":33.831648,"longitude":136.03086},{"prefecture":"三重県","city":"南牟婁郡紀宝町","latitude":33.732504,"longitude":135.964624},{"prefecture":"滋賀県","city":"大津市","latitude":34.938948,"longitude":136.026392},{"prefecture":"滋賀県","city":"彦根市","latitude":35.273953,"longitude":136.261864},{"prefecture":"滋賀県","city":"長浜市","latitude":35.376471,"longitude":136.26955},{"prefecture":"滋賀県","city":"近江八幡市","latitude":35.13905,"longitude":136.092612},{"prefecture":"滋賀県","city":"草津市","latitude":35.035315,"longitude":135.94319},{"prefecture":"滋賀県","city":"守山市","latitude":35.07941,"longitude":135.960921},{"prefecture":"滋賀県","city":"栗東市","latitude":34.967197,"longitude":136.026113},{"prefecture":"滋賀県","city":"甲賀市","latitude":34.97235,"longitude":136.157864},{"prefecture":"滋賀県","city":"野洲市","latitude":35.05014,"longitude":136.050533},{"prefecture":"滋賀県","city":"湖南市","latitude":34.990005,"longitude":136.119941},{"prefecture":"滋賀県","city":"高島市","latitude":35.329925,"longitude":136.034823},{"prefecture":"滋賀県","city":"東近江市","latitude":35.093206,"longitude":136.296782},{"prefecture":"滋賀県","city":"米原市","latitude":35.412846,"longitude":136.39073},{"prefecture":"滋賀県","city":"蒲生郡日野町","latitude":35.014944,"longitude":136.213341},{"prefecture":"滋賀県","city":"蒲生郡竜王町","latitude":35.069791,"longitude":136.100593},{"prefecture":"滋賀県","city":"愛知郡愛荘町","latitude":35.175795,"longitude":136.246629},{"prefecture":"滋賀県","city":"犬上郡豊郷町","latitude":35.202908,"longitude":136.227975},{"prefecture":"滋賀県","city":"犬上郡甲良町","latitude":35.201458,"longitude":136.251594},{"prefecture":"滋賀県","city":"犬上郡多賀町","latitude":35.184283,"longitude":136.324464},{"prefecture":"京都府","city":"京都市北区","latitude":35.075936,"longitude":135.747963},{"prefecture":"京都府","city":"京都市上京区","latitude":35.027847,"longitude":135.746002},{"prefecture":"京都府","city":"京都市左京区","latitude":35.052575,"longitude":135.82041},{"prefecture":"京都府","city":"京都市中京区","latitude":34.999954,"longitude":135.73569},{"prefecture":"京都府","city":"京都市東山区","latitude":34.978058,"longitude":135.777137},{"prefecture":"京都府","city":"京都市下京区","latitude":35.002973,"longitude":135.764009},{"prefecture":"京都府","city":"京都市南区","latitude":34.964409,"longitude":135.750658},{"prefecture":"京都府","city":"京都市右京区","latitude":35.037029,"longitude":135.67849},{"prefecture":"京都府","city":"京都市伏見区","latitude":34.934842,"longitude":135.738999},{"prefecture":"京都府","city":"京都市山科区","latitude":34.995517,"longitude":135.815139},{"prefecture":"京都府","city":"京都市西京区","latitude":34.988673,"longitude":135.674332},{"prefecture":"京都府","city":"福知山市","latitude":35.331165,"longitude":135.156912},{"prefecture":"京都府","city":"舞鶴市","latitude":35.429017,"longitude":135.33213},{"prefecture":"京都府","city":"綾部市","latitude":35.301389,"longitude":135.250709},{"prefecture":"京都府","city":"宇治市","latitude":34.933415,"longitude":135.797083},{"prefecture":"京都府","city":"宮津市","latitude":35.540881,"longitude":135.178843},{"prefecture":"京都府","city":"亀岡市","latitude":35.005462,"longitude":135.512808},{"prefecture":"京都府","city":"城陽市","latitude":34.828578,"longitude":135.821105},{"prefecture":"京都府","city":"向日市","latitude":34.941289,"longitude":135.711548},{"prefecture":"京都府","city":"長岡京市","latitude":34.937151,"longitude":135.676083},{"prefecture":"京都府","city":"八幡市","latitude":34.87099,"longitude":135.737444},{"prefecture":"京都府","city":"京田辺市","latitude":34.801333,"longitude":135.776196},{"prefecture":"京都府","city":"京丹後市","latitude":35.725863,"longitude":135.13662},{"prefecture":"京都府","city":"南丹市","latitude":35.083306,"longitude":135.523367},{"prefecture":"京都府","city":"木津川市","latitude":34.723277,"longitude":135.824261},{"prefecture":"京都府","city":"乙訓郡大山崎町","latitude":34.903588,"longitude":135.701004},{"prefecture":"京都府","city":"久世郡久御山町","latitude":34.89508,"longitude":135.759142},{"prefecture":"京都府","city":"綴喜郡井手町","latitude":34.800551,"longitude":135.818137},{"prefecture":"京都府","city":"綴喜郡宇治田原町","latitude":34.832855,"longitude":135.862228},{"prefecture":"京都府","city":"相楽郡笠置町","latitude":34.767963,"longitude":135.927834},{"prefecture":"京都府","city":"相楽郡和束町","latitude":34.775148,"longitude":135.887132},{"prefecture":"京都府","city":"相楽郡精華町","latitude":34.775753,"longitude":135.783289},{"prefecture":"京都府","city":"相楽郡南山城村","latitude":34.778164,"longitude":136.005921},{"prefecture":"京都府","city":"船井郡京丹波町","latitude":35.251573,"longitude":135.37677},{"prefecture":"京都府","city":"与謝郡伊根町","latitude":35.671151,"longitude":135.297469},{"prefecture":"京都府","city":"与謝郡与謝野町","latitude":35.517969,"longitude":135.090484},{"prefecture":"大阪府","city":"大阪市都島区","latitude":34.694523,"longitude":135.524711},{"prefecture":"大阪府","city":"大阪市福島区","latitude":34.698254,"longitude":135.475745},{"prefecture":"大阪府","city":"大阪市此花区","latitude":34.65401,"longitude":135.391692},{"prefecture":"大阪府","city":"大阪市西区","latitude":34.679415,"longitude":135.469474},{"prefecture":"大阪府","city":"大阪市港区","latitude":34.65792,"longitude":135.449062},{"prefecture":"大阪府","city":"大阪市大正区","latitude":34.661987,"longitude":135.473082},{"prefecture":"大阪府","city":"大阪市天王寺区","latitude":34.667172,"longitude":135.528111},{"prefecture":"大阪府","city":"大阪市浪速区","latitude":34.661753,"longitude":135.487515},{"prefecture":"大阪府","city":"大阪市西淀川区","latitude":34.715464,"longitude":135.465145},{"prefecture":"大阪府","city":"大阪市東淀川区","latitude":34.756896,"longitude":135.532179},{"prefecture":"大阪府","city":"大阪市東成区","latitude":34.67274,"longitude":135.545765},{"prefecture":"大阪府","city":"大阪市生野区","latitude":34.650341,"longitude":135.526426},{"prefecture":"大阪府","city":"大阪市旭区","latitude":34.722616,"longitude":135.533157},{"prefecture":"大阪府","city":"大阪市城東区","latitude":34.69896,"longitude":135.547961},{"prefecture":"大阪府","city":"大阪市阿倍野区","latitude":34.629479,"longitude":135.504985},{"prefecture":"大阪府","city":"大阪市住吉区","latitude":34.591243,"longitude":135.510936},{"prefecture":"大阪府","city":"大阪市東住吉区","latitude":34.630809,"longitude":135.536138},{"prefecture":"大阪府","city":"大阪市西成区","latitude":34.644366,"longitude":135.49468},{"prefecture":"大阪府","city":"大阪市淀川区","latitude":34.725844,"longitude":135.459801},{"prefecture":"大阪府","city":"大阪市鶴見区","latitude":34.694813,"longitude":135.567775},{"prefecture":"大阪府","city":"大阪市住之江区","latitude":34.608509,"longitude":135.489831},{"prefecture":"大阪府","city":"大阪市平野区","latitude":34.606507,"longitude":135.550344},{"prefecture":"大阪府","city":"大阪市北区","latitude":34.698852,"longitude":135.50308},{"prefecture":"大阪府","city":"大阪市中央区","latitude":34.684335,"longitude":135.508136},{"prefecture":"大阪府","city":"堺市堺区","latitude":34.584859,"longitude":135.497523},{"prefecture":"大阪府","city":"堺市中区","latitude":34.507282,"longitude":135.523848},{"prefecture":"大阪府","city":"堺市東区","latitude":34.556457,"longitude":135.530277},{"prefecture":"大阪府","city":"堺市西区","latitude":34.553886,"longitude":135.477219},{"prefecture":"大阪府","city":"堺市南区","latitude":34.487007,"longitude":135.479335},{"prefecture":"大阪府","city":"堺市北区","latitude":34.581061,"longitude":135.510333},{"prefecture":"大阪府","city":"堺市美原区","latitude":34.532193,"longitude":135.555413},{"prefecture":"大阪府","city":"岸和田市","latitude":34.422025,"longitude":135.418155},{"prefecture":"大阪府","city":"豊中市","latitude":34.77641,"longitude":135.449455},{"prefecture":"大阪府","city":"池田市","latitude":34.820271,"longitude":135.445493},{"prefecture":"大阪府","city":"吹田市","latitude":34.808016,"longitude":135.549084},{"prefecture":"大阪府","city":"泉大津市","latitude":34.503394,"longitude":135.393258},{"prefecture":"大阪府","city":"高槻市","latitude":34.80201,"longitude":135.61406},{"prefecture":"大阪府","city":"貝塚市","latitude":34.426417,"longitude":135.355712},{"prefecture":"大阪府","city":"守口市","latitude":34.713082,"longitude":135.573356},{"prefecture":"大阪府","city":"枚方市","latitude":34.804801,"longitude":135.739502},{"prefecture":"大阪府","city":"茨木市","latitude":34.826951,"longitude":135.542808},{"prefecture":"大阪府","city":"八尾市","latitude":34.601077,"longitude":135.620255},{"prefecture":"大阪府","city":"泉佐野市","latitude":34.400741,"longitude":135.32169},{"prefecture":"大阪府","city":"富田林市","latitude":34.512425,"longitude":135.596672},{"prefecture":"大阪府","city":"寝屋川市","latitude":34.773425,"longitude":135.619273},{"prefecture":"大阪府","city":"河内長野市","latitude":34.47098,"longitude":135.555839},{"prefecture":"大阪府","city":"松原市","latitude":34.579004,"longitude":135.552006},{"prefecture":"大阪府","city":"大東市","latitude":34.706803,"longitude":135.652421},