[{"prefecture":"大阪府","city":"大阪市都島区","town":"網島町","latitude":34.694523,"longitude":135.524711},{"prefecture":"大阪府","city":"大阪市都島区","town":"内代町一丁目","latitude":34.709578,"longitude":135.536833},{"prefecture":"大阪府","city":"大阪市都島区","town":"内代町二丁目","latitude":34.712054,"longitude":135.537617},{"prefecture":"大阪府","city":"大阪市都島区","town":"内代町三丁目","latitude":34.713587,"longitude":135.536915},{"prefecture":"大阪府","city":"大阪市都島区","town":"内代町四丁目","latitude":34.716232,"longitude":135.536105},{"prefecture":"大阪府","city":"大阪市都島区","town":"片町一丁目","latitude":34.69268,"longitude":135.525309},{"prefecture":"大阪府","city":"大阪市都島区","town":"片町二丁目","latitude":34.695155,"longitude":135.531456},{"prefecture":"大阪府","city":"大阪市都島区","town":"毛馬町一丁目","latitude":34.718564,"longitude":135.521369},{"prefecture":"大阪府","city":"大阪市都島区","town":"毛馬町二丁目","latitude":34.722091,"longitude":135.525062},{"prefecture":"大阪府","city":"大阪市都島区","town":"毛馬町三丁目","latitude":34.721059,"longitude":135.518492},{"prefecture":"大阪府","city":"大阪市都島区","town":"毛馬町四丁目","latitude":34.724668,"longitude":135.519618},{"prefecture":"大阪府","city":"大阪市都島区","town":"毛馬町五丁目","latitude":34.728067,"longitude":135.522367},{"prefecture":"大阪府","city":"大阪市都島区","town":"善源寺町一丁目","latitude":34.710871,"longitude":135.52432},{"prefecture":"大阪府","city":"大阪市都島区","town":"善源寺町二丁目","latitude":34.712166,"longitude":135.525992},{"prefecture":"大阪府","city":"大阪市都島区","town":"高倉町一丁目","latitude":34.712973,"longitude":135.530521},{"prefecture":"大阪府","city":"大阪市都島区","town":"高倉町二丁目","latitude":34.716218,"longitude":135.531685},{"prefecture":"大阪府","city":"大阪市都島区","town":"高倉町三丁目","latitude":34.719535,"longitude":135.532552},{"prefecture":"大阪府","city":"大阪市都島区","town":"大東町一丁目","latitude":34.72323,"longitude":135.529485},{"prefecture":"大阪府","city":"大阪市都島区","town":"大東町二丁目","latitude":34.72441,"longitude":135.52765},{"prefecture":"大阪府","city":"大阪市都島区","town":"大東町三丁目","latitude":34.729625,"longitude":135.526221},{"prefecture":"大阪府","city":"大阪市都島区","town":"友渕町一丁目","latitude":34.717516,"longitude":135.526018},{"prefecture":"大阪府","city":"大阪市都島区","town":"友渕町二丁目","latitude":34.715068,"longitude":135.530005},{"prefecture":"大阪府","city":"大阪市都島区","town":"友渕町三丁目","latitude":34.719704,"longitude":135.529804},{"prefecture":"大阪府","city":"大阪市都島区","town":"中野町一丁目","latitude":34.699626,"longitude":135.523588},{"prefecture":"大阪府","city":"大阪市都島区","town":"中野町二丁目","latitude":34.699792,"longitude":135.526424},{"prefecture":"大阪府","city":"大阪市都島区","town":"中野町三丁目","latitude":34.703028,"longitude":135.525401},{"prefecture":"大阪府","city":"大阪市都島区","town":"中野町四丁目","latitude":34.703068,"longitude":135.521559},{"prefecture":"大阪府","city":"大阪市都島区","town":"中野町五丁目","latitude":34.706397,"longitude":135.521329},{"prefecture":"大阪府","city":"大阪市都島区","town":"東野田町一丁目","latitude":34.695993,"longitude":135.528614},{"prefecture":"大阪府","city":"大阪市都島区","town":"東野田町二丁目","latitude":34.697365,"longitude":135.531784},{"prefecture":"大阪府","city":"大阪市都島区","town":"東野田町三丁目","latitude":34.698023,"longitude":135.534629},{"prefecture":"大阪府","city":"大阪市都島区","town":"東野田町四丁目","latitude":34.699529,"longitude":135.53001},{"prefecture":"大阪府","city":"大阪市都島区","town":"東野田町五丁目","latitude":34.700515,"longitude":135.535492},{"prefecture":"大阪府","city":"大阪市都島区","town":"都島北通一丁目","latitude":34.710651,"longitude":135.52897},{"prefecture":"大阪府","city":"大阪市都島区","town":"都島北通二丁目","latitude":34.710688,"longitude":135.532235},{"prefecture":"大阪府","city":"大阪市都島区","town":"都島中通一丁目","latitude":34.704726,"longitude":135.529031},{"prefecture":"大阪府","city":"大阪市都島区","town":"都島中通二丁目","latitude":34.704282,"longitude":135.532163},{"prefecture":"大阪府","city":"大阪市都島区","town":"都島中通三丁目","latitude":34.704006,"longitude":135.535335},{"prefecture":"大阪府","city":"大阪市都島区","town":"都島本通一丁目","latitude":34.709801,"longitude":135.522106},{"prefecture":"大阪府","city":"大阪市都島区","town":"都島本通二丁目","latitude":34.707159,"longitude":135.525261},{"prefecture":"大阪府","city":"大阪市都島区","town":"都島本通三丁目","latitude":34.707477,"longitude":135.528238},{"prefecture":"大阪府","city":"大阪市都島区","town":"都島本通四丁目","latitude":34.707287,"longitude":135.532405},{"prefecture":"大阪府","city":"大阪市都島区","town":"都島本通五丁目","latitude":34.70712,"longitude":135.535322},{"prefecture":"大阪府","city":"大阪市都島区","town":"都島南通一丁目","latitude":34.703946,"longitude":135.527156},{"prefecture":"大阪府","city":"大阪市都島区","town":"都島南通二丁目","latitude":34.701631,"longitude":135.532179},{"prefecture":"大阪府","city":"大阪市都島区","town":"御幸町一丁目","latitude":34.713199,"longitude":135.534003},{"prefecture":"大阪府","city":"大阪市都島区","town":"御幸町二丁目","latitude":34.716785,"longitude":135.534102},{"prefecture":"大阪府","city":"大阪市福島区","town":"海老江一丁目","latitude":34.698254,"longitude":135.475745},{"prefecture":"大阪府","city":"大阪市福島区","town":"海老江二丁目","latitude":34.696575,"longitude":135.474005},{"prefecture":"大阪府","city":"大阪市福島区","town":"海老江三丁目","latitude":34.702651,"longitude":135.472731},{"prefecture":"大阪府","city":"大阪市福島区","town":"海老江四丁目","latitude":34.700508,"longitude":135.46999},{"prefecture":"大阪府","city":"大阪市福島区","town":"海老江五丁目","latitude":34.696053,"longitude":135.4731},{"prefecture":"大阪府","city":"大阪市福島区","town":"海老江六丁目","latitude":34.700052,"longitude":135.468963},{"prefecture":"大阪府","city":"大阪市福島区","town":"海老江七丁目","latitude":34.695829,"longitude":135.470793},{"prefecture":"大阪府","city":"大阪市福島区","town":"海老江八丁目","latitude":34.698565,"longitude":135.466188},{"prefecture":"大阪府","city":"大阪市福島区","town":"大開一丁目","latitude":34.693213,"longitude":135.472621},{"prefecture":"大阪府","city":"大阪市福島区","town":"大開二丁目","latitude":34.692318,"longitude":135.469993},{"prefecture":"大阪府","city":"大阪市福島区","town":"大開三丁目","latitude":34.691942,"longitude":135.467746},{"prefecture":"大阪府","city":"大阪市福島区","town":"大開四丁目","latitude":34.691705,"longitude":135.465501},{"prefecture":"大阪府","city":"大阪市福島区","town":"鷺洲一丁目","latitude":34.695039,"longitude":135.479289},{"prefecture":"大阪府","city":"大阪市福島区","town":"鷺洲二丁目","latitude":34.698001,"longitude":135.481653},{"prefecture":"大阪府","city":"大阪市福島区","town":"鷺洲三丁目","latitude":34.69683,"longitude":135.478744},{"prefecture":"大阪府","city":"大阪市福島区","town":"鷺洲四丁目","latitude":34.699796,"longitude":135.481189},{"prefecture":"大阪府","city":"大阪市福島区","town":"鷺洲五丁目","latitude":34.699617,"longitude":135.477857},{"prefecture":"大阪府","city":"大阪市福島区","town":"鷺洲六丁目","latitude":34.701992,"longitude":135.477555},{"prefecture":"大阪府","city":"大阪市福島区","town":"玉川一丁目","latitude":34.688522,"longitude":135.482185},{"prefecture":"大阪府","city":"大阪市福島区","town":"玉川二丁目","latitude":34.691136,"longitude":135.47984},{"prefecture":"大阪府","city":"大阪市福島区","town":"玉川三丁目","latitude":34.687385,"longitude":135.480307},{"prefecture":"大阪府","city":"大阪市福島区","town":"玉川四丁目","latitude":34.689356,"longitude":135.477914},{"prefecture":"大阪府","city":"大阪市福島区","town":"野田一丁目","latitude":34.684189,"longitude":135.478525},{"prefecture":"大阪府","city":"大阪市福島区","town":"野田二丁目","latitude":34.685982,"longitude":135.477107},{"prefecture":"大阪府","city":"大阪市福島区","town":"野田三丁目","latitude":34.688383,"longitude":135.475825},{"prefecture":"大阪府","city":"大阪市福島区","town":"野田四丁目","latitude":34.682718,"longitude":135.474749},{"prefecture":"大阪府","city":"大阪市福島区","town":"野田五丁目","latitude":34.685619,"longitude":135.47293},{"prefecture":"大阪府","city":"大阪市福島区","town":"野田六丁目","latitude":34.683865,"longitude":135.471571},{"prefecture":"大阪府","city":"大阪市福島区","town":"福島一丁目","latitude":34.694657,"longitude":135.489037},{"prefecture":"大阪府","city":"大阪市福島区","town":"福島二丁目","latitude":34.693725,"longitude":135.486886},{"prefecture":"大阪府","city":"大阪市福島区","town":"福島三丁目","latitude":34.69235,"longitude":135.485333},{"prefecture":"大阪府","city":"大阪市福島区","town":"福島四丁目","latitude":34.692819,"longitude":135.48251},{"prefecture":"大阪府","city":"大阪市福島区","town":"福島五丁目","latitude":34.696472,"longitude":135.487622},{"prefecture":"大阪府","city":"大阪市福島区","town":"福島六丁目","latitude":34.699921,"longitude":135.488451},{"prefecture":"大阪府","city":"大阪市福島区","town":"福島七丁目","latitude":34.698529,"longitude":135.485791},{"prefecture":"大阪府","city":"大阪市福島区","town":"福島八丁目","latitude":34.696732,"longitude":135.483364},{"prefecture":"大阪府","city":"大阪市福島区","town":"吉野一丁目","latitude":34.69266,"longitude":135.478184},{"prefecture":"大阪府","city":"大阪市福島区","town":"吉野二丁目","latitude":34.691793,"longitude":135.476051},{"prefecture":"大阪府","city":"大阪市福島区","town":"吉野三丁目","latitude":34.690193,"longitude":135.474189},{"prefecture":"大阪府","city":"大阪市福島区","town":"吉野四丁目","latitude":34.68857,"longitude":135.470963},{"prefecture":"大阪府","city":"大阪市福島区","town":"吉野五丁目","latitude":34.687204,"longitude":135.467717},{"prefecture":"大阪府","city":"大阪市此花区","town":"夢洲中一丁目","latitude":34.65401,"longitude":135.391692},{"prefecture":"大阪府","city":"大阪市此花区","town":"朝日一丁目","latitude":34.68516,"longitude":135.461233},{"prefecture":"大阪府","city":"大阪市此花区","town":"朝日二丁目","latitude":34.686145,"longitude":135.461184},{"prefecture":"大阪府","city":"大阪市此花区","town":"梅町一丁目","latitude":34.65727,"longitude":135.421341},{"prefecture":"大阪府","city":"大阪市此花区","town":"梅町二丁目","latitude":34.659882,"longitude":135.417716},{"prefecture":"大阪府","city":"大阪市此花区","town":"春日出北一丁目","latitude":34.683557,"longitude":135.451112},{"prefecture":"大阪府","city":"大阪市此花区","town":"春日出北二丁目","latitude":34.682094,"longitude":135.448419},{"prefecture":"大阪府","city":"大阪市此花区","town":"春日出北三丁目","latitude":34.680729,"longitude":135.445717},{"prefecture":"大阪府","city":"大阪市此花区","town":"春日出中一丁目","latitude":34.680747,"longitude":135.452972},{"prefecture":"大阪府","city":"大阪市此花区","town":"春日出中二丁目","latitude":34.679425,"longitude":135.450354},{"prefecture":"大阪府","city":"大阪市此花区","town":"春日出中三丁目","latitude":34.677968,"longitude":135.447245},{"prefecture":"大阪府","city":"大阪市此花区","town":"春日出南一丁目","latitude":34.678805,"longitude":135.45777},{"prefecture":"大阪府","city":"大阪市此花区","town":"春日出南二丁目","latitude":34.67807,"longitude":135.454773},{"prefecture":"大阪府","city":"大阪市此花区","town":"春日出南三丁目","latitude":34.674932,"longitude":135.449462},{"prefecture":"大阪府","city":"大阪市此花区","town":"桜島一丁目","latitude":34.662663,"longitude":135.436028},{"prefecture":"大阪府","city":"大阪市此花区","town":"桜島二丁目","latitude":34.666579,"longitude":135.432945},{"prefecture":"大阪府","city":"大阪市此花区","town":"桜島三丁目","latitude":34.660756,"longitude":135.427608},{"prefecture":"大阪府","city":"大阪市此花区","town":"四貫島一丁目","latitude":34.685401,"longitude":135.457081},{"prefecture":"大阪府","city":"大阪市此花区","town":"四貫島二丁目","latitude":34.684768,"longitude":135.454353},{"prefecture":"大阪府","city":"大阪市此花区","town":"島屋一丁目","latitude":34.679106,"longitude":135.442131},{"prefecture":"大阪府","city":"大阪市此花区","town":"島屋二丁目","latitude":34.675985,"longitude":135.434786},{"prefecture":"大阪府","city":"大阪市此花区","town":"島屋三丁目","latitude":34.676456,"longitude":135.443118},{"prefecture":"大阪府","city":"大阪市此花区","town":"島屋四丁目","latitude":34.673734,"longitude":135.441216},{"prefecture":"大阪府","city":"大阪市此花区","town":"島屋五丁目","latitude":34.671651,"longitude":135.436294},{"prefecture":"大阪府","city":"大阪市此花区","town":"島屋六丁目","latitude":34.669805,"longitude":135.442493},{"prefecture":"大阪府","city":"大阪市此花区","town":"高見一丁目","latitude":34.693831,"longitude":135.460649},{"prefecture":"大阪府","city":"大阪市此花区","town":"高見二丁目","latitude":34.690023,"longitude":135.456594},{"prefecture":"大阪府","city":"大阪市此花区","town":"高見三丁目","latitude":34.692573,"longitude":135.456515},{"prefecture":"大阪府","city":"大阪市此花区","town":"常吉一丁目","latitude":34.675672,"longitude":135.419407},{"prefecture":"大阪府","city":"大阪市此花区","town":"常吉二丁目","latitude":34.674313,"longitude":135.413296},{"prefecture":"大阪府","city":"大阪市此花区","town":"伝法一丁目","latitude":34.687755,"longitude":135.46038},{"prefecture":"大阪府","city":"大阪市此花区","town":"伝法二丁目","latitude":34.687641,"longitude":135.45651},{"prefecture":"大阪府","city":"大阪市此花区","town":"伝法三丁目","latitude":34.690599,"longitude":135.452352},{"prefecture":"大阪府","city":"大阪市此花区","town":"伝法四丁目","latitude":34.68742,"longitude":135.452995},{"prefecture":"大阪府","city":"大阪市此花区","town":"伝法五丁目","latitude":34.688157,"longitude":135.446737},{"prefecture":"大阪府","city":"大阪市此花区","town":"伝法六丁目","latitude":34.685816,"longitude":135.449849},{"prefecture":"大阪府","city":"大阪市此花区","town":"酉島一丁目","latitude":34.684024,"longitude":135.445456},{"prefecture":"大阪府","city":"大阪市此花区","town":"酉島二丁目","latitude":34.686474,"longitude":135.44259},{"prefecture":"大阪府","city":"大阪市此花区","town":"酉島三丁目","latitude":34.682258,"longitude":135.440588},{"prefecture":"大阪府","city":"大阪市此花区","town":"酉島四丁目","latitude":34.685245,"longitude":135.439276},{"prefecture":"大阪府","city":"大阪市此花区","town":"酉島五丁目","latitude":34.679323,"longitude":135.428102},{"prefecture":"大阪府","city":"大阪市此花区","town":"酉島六丁目","latitude":34.682966,"longitude":135.433259},{"prefecture":"大阪府","city":"大阪市此花区","town":"西九条一丁目","latitude":34.681917,"longitude":135.468518},{"prefecture":"大阪府","city":"大阪市此花区","town":"西九条二丁目","latitude":34.679723,"longitude":135.465406},{"prefecture":"大阪府","city":"大阪市此花区","town":"西九条三丁目","latitude":34.684074,"longitude":135.467031},{"prefecture":"大阪府","city":"大阪市此花区","town":"西九条四丁目","latitude":34.68123,"longitude":135.464415},{"prefecture":"大阪府","city":"大阪市此花区","town":"西九条五丁目","latitude":34.685094,"longitude":135.464694},{"prefecture":"大阪府","city":"大阪市此花区","town":"西九条六丁目","latitude":34.681656,"longitude":135.462464},{"prefecture":"大阪府","city":"大阪市此花区","town":"西九条七丁目","latitude":34.677226,"longitude":135.459272},{"prefecture":"大阪府","city":"大阪市此花区","town":"梅香一丁目","latitude":34.683379,"longitude":135.460338},{"prefecture":"大阪府","city":"大阪市此花区","town":"梅香二丁目","latitude":34.681093,"longitude":135.459253},{"prefecture":"大阪府","city":"大阪市此花区","town":"梅香三丁目","latitude":34.682559,"longitude":135.456022},{"prefecture":"大阪府","city":"大阪市此花区","town":"北港一丁目","latitude":34.671845,"longitude":135.4258},{"prefecture":"大阪府","city":"大阪市此花区","town":"北港二丁目","latitude":34.668133,"longitude":135.419315},{"prefecture":"大阪府","city":"大阪市此花区","town":"北港白津一丁目","latitude":34.663001,"longitude":135.406327},{"prefecture":"大阪府","city":"大阪市此花区","town":"北港白津二丁目","latitude":34.668536,"longitude":135.406217},{"prefecture":"大阪府","city":"大阪市此花区","town":"北港緑地一丁目","latitude":34.663674,"longitude":135.400349},{"prefecture":"大阪府","city":"大阪市此花区","town":"北港緑地二丁目","latitude":34.667203,"longitude":135.395352},{"prefecture":"大阪府","city":"大阪市此花区","town":"夢洲東一丁目","latitude":34.65073,"longitude":135.396372},{"prefecture":"大阪府","city":"大阪市西区","town":"安治川一丁目","latitude":34.679415,"longitude":135.469474},{"prefecture":"大阪府","city":"大阪市西区","town":"安治川二丁目","latitude":34.677757,"longitude":135.464548},{"prefecture":"大阪府","city":"大阪市西区","town":"阿波座一丁目","latitude":34.681024,"longitude":135.495331},{"prefecture":"大阪府","city":"大阪市西区","town":"阿波座二丁目","latitude":34.680784,"longitude":135.491823},{"prefecture":"大阪府","city":"大阪市西区","town":"立売堀一丁目","latitude":34.679678,"longitude":135.49537},{"prefecture":"大阪府","city":"大阪市西区","town":"立売堀二丁目","latitude":34.679341,"longitude":135.491931},{"prefecture":"大阪府","city":"大阪市西区","town":"立売堀三丁目","latitude":34.679952,"longitude":135.489766},{"prefecture":"大阪府","city":"大阪市西区","town":"立売堀四丁目","latitude":34.679734,"longitude":135.487868},{"prefecture":"大阪府","city":"大阪市西区","town":"立売堀五丁目","latitude":34.679572,"longitude":135.485955},{"prefecture":"大阪府","city":"大阪市西区","town":"立売堀六丁目","latitude":34.679474,"longitude":135.483656},{"prefecture":"大阪府","city":"大阪市西区","town":"靱本町一丁目","latitude":34.685278,"longitude":135.495181},{"prefecture":"大阪府","city":"大阪市西区","town":"靱本町二丁目","latitude":34.684085,"longitude":135.491102},{"prefecture":"大阪府","city":"大阪市西区","town":"靱本町三丁目","latitude":34.68336,"longitude":135.487773},{"prefecture":"大阪府","city":"大阪市西区","town":"江戸堀一丁目","latitude":34.689904,"longitude":135.495285},{"prefecture":"大阪府","city":"大阪市西区","town":"江戸堀二丁目","latitude":34.687053,"longitude":135.49004},{"prefecture":"大阪府","city":"大阪市西区","town":"江戸堀三丁目","latitude":34.685593,"longitude":135.486914},{"prefecture":"大阪府","city":"大阪市西区","town":"江之子島一丁目","latitude":34.683746,"longitude":135.484426},{"prefecture":"大阪府","city":"大阪市西区","town":"江之子島二丁目","latitude":34.681708,"longitude":135.484576},{"prefecture":"大阪府","city":"大阪市西区","town":"川口一丁目","latitude":34.682537,"longitude":135.482474},{"prefecture":"大阪府","city":"大阪市西区","town":"川口二丁目","latitude":34.682512,"longitude":135.480077},{"prefecture":"大阪府","city":"大阪市西区","town":"川口三丁目","latitude":34.680486,"longitude":135.478147},{"prefecture":"大阪府","city":"大阪市西区","town":"川口四丁目","latitude":34.680095,"longitude":135.474557},{"prefecture":"大阪府","city":"大阪市西区","town":"北堀江一丁目","latitude":34.673824,"longitude":135.495182},{"prefecture":"大阪府","city":"大阪市西区","town":"北堀江二丁目","latitude":34.673963,"longitude":135.491833},{"prefecture":"大阪府","city":"大阪市西区","town":"北堀江三丁目","latitude":34.674055,"longitude":135.488735},{"prefecture":"大阪府","city":"大阪市西区","town":"北堀江四丁目","latitude":34.674553,"longitude":135.484345},{"prefecture":"大阪府","city":"大阪市西区","town":"京町堀一丁目","latitude":34.687308,"longitude":135.495002},{"prefecture":"大阪府","city":"大阪市西区","town":"京町堀二丁目","latitude":34.685707,"longitude":135.49089},{"prefecture":"大阪府","city":"大阪市西区","town":"京町堀三丁目","latitude":34.684414,"longitude":135.487522},{"prefecture":"大阪府","city":"大阪市西区","town":"九条一丁目","latitude":34.67482,"longitude":135.475696},{"prefecture":"大阪府","city":"大阪市西区","town":"九条二丁目","latitude":34.676522,"longitude":135.473127},{"prefecture":"大阪府","city":"大阪市西区","town":"九条三丁目","latitude":34.677446,"longitude":135.469987},{"prefecture":"大阪府","city":"大阪市西区","town":"九条南一丁目","latitude":34.670475,"longitude":135.475128},{"prefecture":"大阪府","city":"大阪市西区","town":"九条南二丁目","latitude":34.672244,"longitude":135.4724},{"prefecture":"大阪府","city":"大阪市西区","town":"九条南三丁目","latitude":34.674769,"longitude":135.469735},{"prefecture":"大阪府","city":"大阪市西区","town":"九条南四丁目","latitude":34.676284,"longitude":135.466483},{"prefecture":"大阪府","city":"大阪市西区","town":"境川一丁目","latitude":34.669897,"longitude":135.471482},{"prefecture":"大阪府","city":"大阪市西区","town":"境川二丁目","latitude":34.674273,"longitude":135.465809},{"prefecture":"大阪府","city":"大阪市西区","town":"新町一丁目","latitude":34.677187,"longitude":135.495363},{"prefecture":"大阪府","city":"大阪市西区","town":"新町二丁目","latitude":34.677118,"longitude":135.492005},{"prefecture":"大阪府","city":"大阪市西区","town":"新町三丁目","latitude":34.67697,"longitude":135.489009},{"prefecture":"大阪府","city":"大阪市西区","town":"新町四丁目","latitude":34.676901,"longitude":135.484948},{"prefecture":"大阪府","city":"大阪市西区","town":"千代崎一丁目","latitude":34.675471,"longitude":135.480231},{"prefecture":"大阪府","city":"大阪市西区","town":"千代崎二丁目","latitude":34.672614,"longitude":135.47859},{"prefecture":"大阪府","city":"大阪市西区","town":"千代崎三丁目","latitude":34.669488,"longitude":135.477336},{"prefecture":"大阪府","city":"大阪市西区","town":"土佐堀一丁目","latitude":34.690697,"longitude":135.493271},{"prefecture":"大阪府","city":"大阪市西区","town":"土佐堀二丁目","latitude":34.68832,"longitude":135.489675},{"prefecture":"大阪府","city":"大阪市西区","town":"土佐堀三丁目","latitude":34.686185,"longitude":135.48543},{"prefecture":"大阪府","city":"大阪市西区","town":"西本町一丁目","latitude":34.682734,"longitude":135.495293},{"prefecture":"大阪府","city":"大阪市西区","town":"西本町二丁目","latitude":34.682394,"longitude":135.491015},{"prefecture":"大阪府","city":"大阪市西区","town":"西本町三丁目","latitude":34.68173,"longitude":135.487621},{"prefecture":"大阪府","city":"大阪市西区","town":"本田一丁目","latitude":34.678205,"longitude":135.480996},{"prefecture":"大阪府","city":"大阪市西区","town":"本田二丁目","latitude":34.678013,"longitude":135.478248},{"prefecture":"大阪府","city":"大阪市西区","town":"本田三丁目","latitude":34.677985,"longitude":135.475402},{"prefecture":"大阪府","city":"大阪市西区","town":"本田四丁目","latitude":34.678664,"longitude":135.472603},{"prefecture":"大阪府","city":"大阪市西区","town":"南堀江一丁目","latitude":34.670792,"longitude":135.49464},{"prefecture":"大阪府","city":"大阪市西区","town":"南堀江二丁目","latitude":34.671091,"longitude":135.491363},{"prefecture":"大阪府","city":"大阪市西区","town":"南堀江三丁目","latitude":34.671244,"longitude":135.488426},{"prefecture":"大阪府","city":"大阪市西区","town":"南堀江四丁目","latitude":34.670653,"longitude":135.483252},{"prefecture":"大阪府","city":"大阪市港区","town":"池島一丁目","latitude":34.65792,"longitude":135.449062},{"prefecture":"大阪府","city":"大阪市港区","town":"池島二丁目","latitude":34.656199,"longitude":135.451115},{"prefecture":"大阪府","city":"大阪市港区","town":"池島三丁目","latitude":34.654381,"longitude":135.449586},{"prefecture":"大阪府","city":"大阪市港区","town":"石田一丁目","latitude":34.668928,"longitude":135.452886},{"prefecture":"大阪府","city":"大阪市港区","town":"石田二丁目","latitude":34.667197,"longitude":135.447561},{"prefecture":"大阪府","city":"大阪市港区","town":"石田三丁目","latitude":34.662347,"longitude":135.443732},{"prefecture":"大阪府","city":"大阪市港区","town":"磯路一丁目","latitude":34.666815,"longitude":135.462093},{"prefecture":"大阪府","city":"大阪市港区","town":"磯路二丁目","latitude":34.666017,"longitude":135.459719},{"prefecture":"大阪府","city":"大阪市港区","town":"磯路三丁目","latitude":34.66442,"longitude":135.456163},{"prefecture":"大阪府","city":"大阪市港区","town":"市岡一丁目","latitude":34.663089,"longitude":135.461691},{"prefecture":"大阪府","city":"大阪市港区","town":"市岡二丁目","latitude":34.661386,"longitude":135.459083},{"prefecture":"大阪府","city":"大阪市港区","town":"市岡三丁目","latitude":34.661882,"longitude":135.464488},{"prefecture":"大阪府","city":"大阪市港区","town":"市岡四丁目","latitude":34.659821,"longitude":135.462433},{"prefecture":"大阪府","city":"大阪市港区","town":"市岡元町一丁目","latitude":34.669647,"longitude":135.469614},{"prefecture":"大阪府","city":"大阪市港区","town":"市岡元町二丁目","latitude":34.668782,"longitude":135.466901},{"prefecture":"大阪府","city":"大阪市港区","town":"市岡元町三丁目","latitude":34.667492,"longitude":135.464354},{"prefecture":"大阪府","city":"大阪市港区","town":"海岸通一丁目","latitude":34.653754,"longitude":135.429178},{"prefecture":"大阪府","city":"大阪市港区","town":"海岸通二丁目","latitude":34.650799,"longitude":135.435775},{"prefecture":"大阪府","city":"大阪市港区","town":"海岸通三丁目","latitude":34.6499,"longitude":135.442995},{"prefecture":"大阪府","city":"大阪市港区","town":"海岸通四丁目","latitude":34.647177,"longitude":135.448537},{"prefecture":"大阪府","city":"大阪市港区","town":"港晴一丁目","latitude":34.656408,"longitude":135.44371},{"prefecture":"大阪府","city":"大阪市港区","town":"港晴二丁目","latitude":34.654607,"longitude":135.441553},{"prefecture":"大阪府","city":"大阪市港区","town":"港晴三丁目","latitude":34.658598,"longitude":135.442697},{"prefecture":"大阪府","city":"大阪市港区","town":"港晴四丁目","latitude":34.657698,"longitude":135.440672},{"prefecture":"大阪府","city":"大阪市港区","town":"港晴五丁目","latitude":34.659023,"longitude":135.439181},{"prefecture":"大阪府","city":"大阪市港区","town":"田中一丁目","latitude":34.665669,"longitude":135.44975},{"prefecture":"大阪府","city":"大阪市港区","town":"田中二丁目","latitude":34.663581,"longitude":135.448521},{"prefecture":"大阪府","city":"大阪市港区","town":"田中三丁目","latitude":34.660781,"longitude":135.446577},{"prefecture":"大阪府","city":"大阪市港区","town":"築港一丁目","latitude":34.653246,"longitude":135.436702},{"prefecture":"大阪府","city":"大阪市港区","town":"築港二丁目","latitude":34.652129,"longitude":135.432424},{"prefecture":"大阪府","city":"大阪市港区","town":"築港三丁目","latitude":34.656411,"longitude":135.433528},{"prefecture":"大阪府","city":"大阪市港区","town":"築港四丁目","latitude":34.65418,"longitude":135.431456},{"prefecture":"大阪府","city":"大阪市港区","town":"波除一丁目","latitude":34.673715,"longitude":135.464851},{"prefecture":"大阪府","city":"大阪市港区","town":"波除二丁目","latitude":34.671247,"longitude":135.465446},{"prefecture":"大阪府","city":"大阪市港区","town":"波除三丁目","latitude":34.670458,"longitude":135.462628},{"prefecture":"大阪府","city":"大阪市港区","town":"波除四丁目","latitude":34.673986,"longitude":135.462884},{"prefecture":"大阪府","city":"大阪市港区","town":"波除五丁目","latitude":34.673452,"longitude":135.460861},{"prefecture":"大阪府","city":"大阪市港区","town":"波除六丁目","latitude":34.675999,"longitude":135.459946},{"prefecture":"大阪府","city":"大阪市港区","town":"福崎一丁目","latitude":34.657786,"longitude":135.459471},{"prefecture":"大阪府","city":"大阪市港区","town":"福崎二丁目","latitude":34.653478,"longitude":135.45309},{"prefecture":"大阪府","city":"大阪市港区","town":"福崎三丁目","latitude":34.652161,"longitude":135.456157},{"prefecture":"大阪府","city":"大阪市港区","town":"弁天一丁目","latitude":34.669501,"longitude":135.459489},{"prefecture":"大阪府","city":"大阪市港区","town":"弁天二丁目","latitude":34.668171,"longitude":135.456418},{"prefecture":"大阪府","city":"大阪市港区","town":"弁天三丁目","latitude":34.666808,"longitude":135.453207},{"prefecture":"大阪府","city":"大阪市港区","town":"弁天四丁目","latitude":34.671294,"longitude":135.458301},{"prefecture":"大阪府","city":"大阪市港区","town":"弁天五丁目","latitude":34.67237,"longitude":135.456747},{"prefecture":"大阪府","city":"大阪市港区","town":"弁天六丁目","latitude":34.673934,"longitude":135.45555},{"prefecture":"大阪府","city":"大阪市港区","town":"三先一丁目","latitude":34.660412,"longitude":135.455339},{"prefecture":"大阪府","city":"大阪市港区","town":"三先二丁目","latitude":34.658822,"longitude":135.451883},{"prefecture":"大阪府","city":"大阪市港区","town":"南市岡一丁目","latitude":34.667157,"longitude":135.471795},{"prefecture":"大阪府","city":"大阪市港区","town":"南市岡二丁目","latitude":34.665435,"longitude":135.468878},{"prefecture":"大阪府","city":"大阪市港区","town":"南市岡三丁目","latitude":34.663945,"longitude":135.466445},{"prefecture":"大阪府","city":"大阪市港区","town":"八幡屋一丁目","latitude":34.657707,"longitude":135.446259},{"prefecture":"大阪府","city":"大阪市港区","town":"八幡屋二丁目","latitude":34.656033,"longitude":135.446859},{"prefecture":"大阪府","city":"大阪市港区","town":"八幡屋三丁目","latitude":34.653495,"longitude":135.44567},{"prefecture":"大阪府","city":"大阪市港区","town":"八幡屋四丁目","latitude":34.651647,"longitude":135.44729},{"prefecture":"大阪府","city":"大阪市港区","town":"夕凪一丁目","latitude":34.663369,"longitude":135.453572},{"prefecture":"大阪府","city":"大阪市港区","town":"夕凪二丁目","latitude":34.66161,"longitude":135.451459},{"prefecture":"大阪府","city":"大阪市大正区","town":"泉尾一丁目","latitude":34.661987,"longitude":135.473082},{"prefecture":"大阪府","city":"大阪市大正区","town":"泉尾二丁目","latitude":34.659969,"longitude":135.472762},{"prefecture":"大阪府","city":"大阪市大正区","town":"泉尾三丁目","latitude":34.65824,"longitude":135.471524},{"prefecture":"大阪府","city":"大阪市大正区","town":"泉尾四丁目","latitude":34.656443,"longitude":135.470572},{"prefecture":"大阪府","city":"大阪市大正区","town":"泉尾五丁目","latitude":34.65423,"longitude":135.469649},{"prefecture":"大阪府","city":"大阪市大正区","town":"泉尾六丁目","latitude":34.661419,"longitude":135.46802},{"prefecture":"大阪府","city":"大阪市大正区","town":"泉尾七丁目","latitude":34.657745,"longitude":135.465715},{"prefecture":"大阪府","city":"大阪市大正区","town":"北恩加島一丁目","latitude":34.65353,"longitude":135.464701},{"prefecture":"大阪府","city":"大阪市大正区","town":"北恩加島二丁目","latitude":34.649586,"longitude":135.461519},{"prefecture":"大阪府","city":"大阪市大正区","town":"北村一丁目","latitude":34.651833,"longitude":135.46883},{"prefecture":"大阪府","city":"大阪市大正区","town":"北村二丁目","latitude":34.652453,"longitude":135.466904},{"prefecture":"大阪府","city":"大阪市大正区","town":"北村三丁目","latitude":34.649694,"longitude":135.466292},{"prefecture":"大阪府","city":"大阪市大正区","town":"小林西一丁目","latitude":34.645688,"longitude":135.466169},{"prefecture":"大阪府","city":"大阪市大正区","town":"小林西二丁目","latitude":34.643862,"longitude":135.468418},{"prefecture":"大阪府","city":"大阪市大正区","town":"小林東一丁目","latitude":34.645738,"longitude":135.477854},{"prefecture":"大阪府","city":"大阪市大正区","town":"小林東二丁目","latitude":34.64509,"longitude":135.47509},{"prefecture":"大阪府","city":"大阪市大正区","town":"小林東三丁目","latitude":34.645389,"longitude":135.472097},{"prefecture":"大阪府","city":"大阪市大正区","town":"三軒家西一丁目","latitude":34.665574,"longitude":135.477231},{"prefecture":"大阪府","city":"大阪市大正区","town":"三軒家西二丁目","latitude":34.665043,"longitude":135.47488},{"prefecture":"大阪府","city":"大阪市大正区","town":"三軒家西三丁目","latitude":34.664975,"longitude":135.472249},{"prefecture":"大阪府","city":"大阪市大正区","town":"三軒家東一丁目","latitude":34.665744,"longitude":135.480051},{"prefecture":"大阪府","city":"大阪市大正区","town":"三軒家東二丁目","latitude":34.660753,"longitude":135.480421},{"prefecture":"大阪府","city":"大阪市大正区","town":"三軒家東三丁目","latitude":34.654904,"longitude":135.479654},{"prefecture":"大阪府","city":"大阪市大正区","town":"三軒家東四丁目","latitude":34.661665,"longitude":135.477567},{"prefecture":"大阪府","city":"大阪市大正区","town":"三軒家東五丁目","latitude":34.659509,"longitude":135.476651},{"prefecture":"大阪府","city":"大阪市大正区","town":"三軒家東六丁目","latitude":34.657015,"longitude":135.475352},{"prefecture":"大阪府","city":"大阪市大正区","town":"千島一丁目","latitude":34.652171,"longitude":135.476207},{"prefecture":"大阪府","city":"大阪市大正区","town":"千島二丁目","latitude":34.650528,"longitude":135.473653},{"prefecture":"大阪府","city":"大阪市大正区","town":"千島三丁目","latitude":34.650306,"longitude":135.470625},{"prefecture":"大阪府","city":"大阪市大正区","town":"鶴町一丁目","latitude":34.634543,"longitude":135.458621},{"prefecture":"大阪府","city":"大阪市大正区","town":"鶴町二丁目","latitude":34.636684,"longitude":135.452541},{"prefecture":"大阪府","city":"大阪市大正区","town":"鶴町三丁目","latitude":34.641536,"longitude":135.452567},{"prefecture":"大阪府","city":"大阪市大正区","town":"鶴町四丁目","latitude":34.644432,"longitude":135.454599},{"prefecture":"大阪府","city":"大阪市大正区","town":"鶴町五丁目","latitude":34.640317,"longitude":135.459507},{"prefecture":"大阪府","city":"大阪市大正区","town":"平尾一丁目","latitude":34.640287,"longitude":135.477473},{"prefecture":"大阪府","city":"大阪市大正区","town":"平尾二丁目","latitude":34.641464,"longitude":135.474649},{"prefecture":"大阪府","city":"大阪市大正区","town":"平尾三丁目","latitude":34.639274,"longitude":135.474241},{"prefecture":"大阪府","city":"大阪市大正区","town":"平尾四丁目","latitude":34.641975,"longitude":135.471234},{"prefecture":"大阪府","city":"大阪市大正区","town":"平尾五丁目","latitude":34.639714,"longitude":135.471083},{"prefecture":"大阪府","city":"大阪市大正区","town":"船町一丁目","latitude":34.629233,"longitude":135.468323},{"prefecture":"大阪府","city":"大阪市大正区","town":"船町二丁目","latitude":34.629157,"longitude":135.455767},{"prefecture":"大阪府","city":"大阪市大正区","town":"南恩加島一丁目","latitude":34.635513,"longitude":135.474672},{"prefecture":"大阪府","city":"大阪市大正区","town":"南恩加島二丁目","latitude":34.637704,"longitude":135.470699},{"prefecture":"大阪府","city":"大阪市大正区","town":"南恩加島三丁目","latitude":34.635258,"longitude":135.470194},{"prefecture":"大阪府","city":"大阪市大正区","town":"南恩加島四丁目","latitude":34.63241,"longitude":135.472069},{"prefecture":"大阪府","city":"大阪市大正区","town":"南恩加島五丁目","latitude":34.640619,"longitude":135.467607},{"prefecture":"大阪府","city":"大阪市大正区","town":"南恩加島六丁目","latitude":34.636808,"longitude":135.46508},{"prefecture":"大阪府","city":"大阪市大正区","town":"南恩加島七丁目","latitude":34.633401,"longitude":135.465789},{"prefecture":"大阪府","city":"大阪市天王寺区","town":"味原町","latitude":34.667172,"longitude":135.528111},{"prefecture":"大阪府","city":"大阪市天王寺区","town":"味原本町","latitude":34.66823,"longitude":135.525269},{"prefecture":"大阪府","city":"大阪市天王寺区","town":"生玉町","latitude":34.664901,"longitude":135.513686},{"prefecture":"大阪府","city":"大阪市天王寺区","town":"生玉寺町","latitude":34.661543,"longitude":135.513297},{"prefecture":"大阪府","city":"大阪市天王寺区","town":"生玉前町","latitude":34.66395,"longitude":135.515509},{"prefecture":"大阪府","city":"大阪市天王寺区","town":"石ケ辻町","latitude":34.664008,"longitude":135.521765},{"prefecture":"大阪府","city":"大阪市天王寺区","town":"上汐三丁目","latitude":34.664859,"longitude":135.516975},{"prefecture":"大阪府","city":"大阪市天王寺区","town":"上汐四丁目","latitude":34.662467,"longitude":135.516525},{"prefecture":"大阪府","city":"大阪市天王寺区","town":"上汐五丁目","latitude":34.66022,"longitude":135.516134},{"prefecture":"大阪府","city":"大阪市天王寺区","town":"上汐六丁目","latitude":34.658269,"longitude":135.516028},{"prefecture":"大阪府","city":"大阪市天王寺区","town":"上之宮町","latitude":34.661842,"longitude":135.520424},{"prefecture":"大阪府","city":"大阪市天王寺区","town":"上本町一丁目","latitude":34.674975,"longitude":135.520869},{"prefecture":"大阪府","city":"大阪市天王寺区","town":"上本町二丁目","latitude":34.673741,"longitude":135.520751},{"prefecture":"大阪府","city":"大阪市天王寺区","town":"上本町三丁目","latitude":34.672368,"longitude":135.521033},{"prefecture":"大阪府","city":"大阪市天王寺区","town":"上本町四丁目","latitude":34.670349,"longitude":135.520292},{"prefecture":"大阪府","city":"大阪市天王寺区","town":"上本町五丁目","latitude":34.668007,"longitude":135.520331},{"prefecture":"大阪府","city":"大阪市天王寺区","town":"上本町六丁目","latitude":34.665016,"longitude":135.51906},{"prefecture":"大阪府","city":"大阪市天王寺区","town":"上本町七丁目","latitude":34.662553,"longitude":135.51834},{"prefecture":"大阪府","city":"大阪市天王寺区","town":"上本町八丁目","latitude":34.660612,"longitude":135.518032},{"prefecture":"大阪府","city":"大阪市天王寺区","town":"上本町九丁目","latitude":34.657961,"longitude":135.517587},{"prefecture":"大阪府","city":"大阪市天王寺区","town":"餌差町","latitude":34.671028,"longitude":135.525944},{"prefecture":"大阪府","city":"大阪市天王寺区","town":"逢阪一丁目","latitude":34.654334,"longitude":135.511643},{"prefecture":"大阪府","city":"大阪市天王寺区","town":"逢阪二丁目","latitude":34.652733,"longitude":135.511612},{"prefecture":"大阪府","city":"大阪市天王寺区","town":"小橋町","latitude":34.666472,"longitude":135.5254},{"prefecture":"大阪府","city":"大阪市天王寺区","town":"勝山一丁目","latitude":34.655429,"longitude":135.520924},{"prefecture":"大阪府","city":"大阪市天王寺区","town":"勝山二丁目","latitude":34.653441,"longitude":135.520391},{"prefecture":"大阪府","city":"大阪市天王寺区","town":"勝山三丁目","latitude":34.654179,"longitude":135.523976},{"prefecture":"大阪府","city":"大阪市天王寺区","town":"勝山四丁目","latitude":34.654427,"longitude":135.526047},{"prefecture":"大阪府","city":"大阪市天王寺区","town":"空清町","latitude":34.672587,"longitude":135.523466},{"prefecture":"大阪府","city":"大阪市天王寺区","town":"烏ケ辻一丁目","latitude":34.65691,"longitude":135.526826},{"prefecture":"大阪府","city":"大阪市天王寺区","town":"烏ケ辻二丁目","latitude":34.656518,"longitude":135.524365},{"prefecture":"大阪府","city":"大阪市天王寺区","town":"空堀町","latitude":34.674163,"longitude":135.527632},{"prefecture":"大阪府","city":"大阪市天王寺区","town":"北河堀町","latitude":34.649935,"longitude":135.51776},{"prefecture":"大阪府","city":"大阪市天王寺区","town":"北山町","latitude":34.660503,"longitude":135.522354},{"prefecture":"大阪府","city":"大阪市天王寺区","town":"国分町","latitude":34.65176,"longitude":135.524596},{"prefecture":"大阪府","city":"大阪市天王寺区","town":"小宮町","latitude":34.659441,"longitude":135.519909},{"prefecture":"大阪府","city":"大阪市天王寺区","town":"細工谷一丁目","latitude":34.662539,"longitude":135.524588},{"prefecture":"大阪府","city":"大阪市天王寺区","town":"細工谷二丁目","latitude":34.66113,"longitude":135.524519},{"prefecture":"大阪府","city":"大阪市天王寺区","town":"真田山町","latitude":34.669926,"longitude":135.52876},{"prefecture":"大阪府","city":"大阪市天王寺区","town":"下寺町一丁目","latitude":34.66304,"longitude":135.5114},{"prefecture":"大阪府","city":"大阪市天王寺区","town":"下寺町二丁目","latitude":34.657557,"longitude":135.510846},{"prefecture":"大阪府","city":"大阪市天王寺区","town":"四天王寺一丁目","latitude":34.654892,"longitude":135.515972},{"prefecture":"大阪府","city":"大阪市天王寺区","town":"四天王寺二丁目","latitude":34.655833,"longitude":135.519247},{"prefecture":"大阪府","city":"大阪市天王寺区","town":"清水谷町","latitude":34.674476,"longitude":135.523545},{"prefecture":"大阪府","city":"大阪市天王寺区","town":"下味原町","latitude":34.665443,"longitude":135.529638},{"prefecture":"大阪府","city":"大阪市天王寺区","town":"真法院町","latitude":34.656831,"longitude":135.520796},{"prefecture":"大阪府","city":"大阪市天王寺区","town":"城南寺町","latitude":34.670313,"longitude":135.522452},{"prefecture":"大阪府","city":"大阪市天王寺区","town":"玉造本町","latitude":34.673058,"longitude":135.529385},{"prefecture":"大阪府","city":"大阪市天王寺区","town":"玉造元町","latitude":34.671986,"longitude":135.531877},{"prefecture":"大阪府","city":"大阪市天王寺区","town":"大道一丁目","latitude":34.652291,"longitude":135.515313},{"prefecture":"大阪府","city":"大阪市天王寺区","town":"大道二丁目","latitude":34.651816,"longitude":135.519431},{"prefecture":"大阪府","city":"大阪市天王寺区","town":"大道三丁目","latitude":34.64977,"longitude":135.520034},{"prefecture":"大阪府","city":"大阪市天王寺区","town":"大道四丁目","latitude":34.649044,"longitude":135.521843},{"prefecture":"大阪府","city":"大阪市天王寺区","town":"大道五丁目","latitude":34.647604,"longitude":135.522442},{"prefecture":"大阪府","city":"大阪市天王寺区","town":"茶臼山町","latitude":34.650412,"longitude":135.510474},{"prefecture":"大阪府","city":"大阪市天王寺区","town":"寺田町一丁目","latitude":34.651845,"longitude":135.522203},{"prefecture":"大阪府","city":"大阪市天王寺区","town":"寺田町二丁目","latitude":34.649839,"longitude":135.524005},{"prefecture":"大阪府","city":"大阪市天王寺区","town":"東上町","latitude":34.663687,"longitude":135.529001},{"prefecture":"大阪府","city":"大阪市天王寺区","town":"堂ケ芝一丁目","latitude":34.659972,"longitude":135.527852},{"prefecture":"大阪府","city":"大阪市天王寺区","town":"堂ケ芝二丁目","latitude":34.660405,"longitude":135.526154},{"prefecture":"大阪府","city":"大阪市天王寺区","town":"東高津町","latitude":34.667464,"longitude":135.522369},{"prefecture":"大阪府","city":"大阪市天王寺区","town":"悲田院町","latitude":34.648282,"longitude":135.515445},{"prefecture":"大阪府","city":"大阪市天王寺区","town":"筆ケ崎町","latitude":34.663807,"longitude":135.525695},{"prefecture":"大阪府","city":"大阪市天王寺区","town":"舟橋町","latitude":34.667628,"longitude":135.53035},{"prefecture":"大阪府","city":"大阪市天王寺区","town":"堀越町","latitude":34.649512,"longitude":135.513902},{"prefecture":"大阪府","city":"大阪市天王寺区","town":"松ケ鼻町","latitude":34.659549,"longitude":135.52405},{"prefecture":"大阪府","city":"大阪市天王寺区","town":"南河堀町","latitude":34.647219,"longitude":135.518989},{"prefecture":"大阪府","city":"大阪市天王寺区","town":"夕陽丘町","latitude":34.658356,"longitude":135.512892},{"prefecture":"大阪府","city":"大阪市天王寺区","town":"伶人町","latitude":34.655798,"longitude":135.512438},{"prefecture":"大阪府","city":"大阪市天王寺区","town":"六万体町","latitude":34.65944,"longitude":135.514742},{"prefecture":"大阪府","city":"大阪市浪速区","town":"芦原一丁目","latitude":34.661753,"longitude":135.487515},{"prefecture":"大阪府","city":"大阪市浪速区","town":"芦原二丁目","latitude":34.661738,"longitude":135.486413},{"prefecture":"大阪府","city":"大阪市浪速区","town":"稲荷一丁目","latitude":34.664613,"longitude":135.492139},{"prefecture":"大阪府","city":"大阪市浪速区","town":"稲荷二丁目","latitude":34.664805,"longitude":135.489753},{"prefecture":"大阪府","city":"大阪市浪速区","town":"恵美須西一丁目","latitude":34.655141,"longitude":135.503633},{"prefecture":"大阪府","city":"大阪市浪速区","town":"恵美須西二丁目","latitude":34.653431,"longitude":135.503137},{"prefecture":"大阪府","city":"大阪市浪速区","town":"恵美須西三丁目","latitude":34.651061,"longitude":135.502386},{"prefecture":"大阪府","city":"大阪市浪速区","town":"恵美須東一丁目","latitude":34.653226,"longitude":135.506634},{"prefecture":"大阪府","city":"大阪市浪速区","town":"恵美須東二丁目","latitude":34.651751,"longitude":135.506143},{"prefecture":"大阪府","city":"大阪市浪速区","town":"恵美須東三丁目","latitude":34.649978,"longitude":135.505525},{"prefecture":"大阪府","city":"大阪市浪速区","town":"戎本町一丁目","latitude":34.653925,"longitude":135.499572},{"prefecture":"大阪府","city":"大阪市浪速区","town":"戎本町二丁目","latitude":34.651756,"longitude":135.499226},{"prefecture":"大阪府","city":"大阪市浪速区","town":"木津川一丁目","latitude":34.665648,"longitude":135.482266},{"prefecture":"大阪府","city":"大阪市浪速区","town":"木津川二丁目","latitude":34.659215,"longitude":135.483488},{"prefecture":"大阪府","city":"大阪市浪速区","town":"久保吉一丁目","latitude":34.66177,"longitude":135.485328},{"prefecture":"大阪府","city":"大阪市浪速区","town":"久保吉二丁目","latitude":34.661636,"longitude":135.483742},{"prefecture":"大阪府","city":"大阪市浪速区","town":"幸町一丁目","latitude":34.668719,"longitude":135.493364},{"prefecture":"大阪府","city":"大阪市浪速区","town":"幸町二丁目","latitude":34.669159,"longitude":135.48941},{"prefecture":"大阪府","city":"大阪市浪速区","town":"幸町三丁目","latitude":34.668838,"longitude":135.484014},{"prefecture":"大阪府","city":"大阪市浪速区","town":"桜川一丁目","latitude":34.666894,"longitude":135.492846},{"prefecture":"大阪府","city":"大阪市浪速区","town":"桜川二丁目","latitude":34.665982,"longitude":135.488588},{"prefecture":"大阪府","city":"大阪市浪速区","town":"桜川三丁目","latitude":34.666992,"longitude":135.486996},{"prefecture":"大阪府","city":"大阪市浪速区","town":"桜川四丁目","latitude":34.665919,"longitude":135.484597},{"prefecture":"大阪府","city":"大阪市浪速区","town":"塩草一丁目","latitude":34.66188,"longitude":135.492063},{"prefecture":"大阪府","city":"大阪市浪速区","town":"塩草二丁目","latitude":34.65944,"longitude":135.491612},{"prefecture":"大阪府","city":"大阪市浪速区","town":"塩草三丁目","latitude":34.661262,"longitude":135.489155},{"prefecture":"大阪府","city":"大阪市浪速区","town":"敷津西一丁目","latitude":34.658588,"longitude":135.49543},{"prefecture":"大阪府","city":"大阪市浪速区","town":"敷津西二丁目","latitude":34.656936,"longitude":135.496023},{"prefecture":"大阪府","city":"大阪市浪速区","town":"敷津東一丁目","latitude":34.65867,"longitude":135.500203},{"prefecture":"大阪府","city":"大阪市浪速区","town":"敷津東二丁目","latitude":34.65701,"longitude":135.499983},{"prefecture":"大阪府","city":"大阪市浪速区","town":"敷津東三丁目","latitude":34.655497,"longitude":135.499817},{"prefecture":"大阪府","city":"大阪市浪速区","town":"下寺一丁目","latitude":34.661331,"longitude":135.510105},{"prefecture":"大阪府","city":"大阪市浪速区","town":"下寺二丁目","latitude":34.659109,"longitude":135.509814},{"prefecture":"大阪府","city":"大阪市浪速区","town":"下寺三丁目","latitude":34.655908,"longitude":135.509267},{"prefecture":"大阪府","city":"大阪市浪速区","town":"立葉一丁目","latitude":34.66445,"longitude":135.48722},{"prefecture":"大阪府","city":"大阪市浪速区","town":"立葉二丁目","latitude":34.664394,"longitude":135.485269},{"prefecture":"大阪府","city":"大阪市浪速区","town":"大国一丁目","latitude":34.653219,"longitude":135.497008},{"prefecture":"大阪府","city":"大阪市浪速区","town":"大国二丁目","latitude":34.653922,"longitude":135.495247},{"prefecture":"大阪府","city":"大阪市浪速区","town":"大国三丁目","latitude":34.654794,"longitude":135.493249},{"prefecture":"大阪府","city":"大阪市浪速区","town":"浪速西一丁目","latitude":34.65858,"longitude":135.486715},{"prefecture":"大阪府","city":"大阪市浪速区","town":"浪速西二丁目","latitude":34.656612,"longitude":135.486783},{"prefecture":"大阪府","city":"大阪市浪速区","town":"浪速西三丁目","latitude":34.654976,"longitude":135.48682},{"prefecture":"大阪府","city":"大阪市浪速区","town":"浪速西四丁目","latitude":34.653411,"longitude":135.486409},{"prefecture":"大阪府","city":"大阪市浪速区","town":"浪速東一丁目","latitude":34.657701,"longitude":135.491367},{"prefecture":"大阪府","city":"大阪市浪速区","town":"浪速東二丁目","latitude":34.656738,"longitude":135.489702},{"prefecture":"大阪府","city":"大阪市浪速区","town":"浪速東三丁目","latitude":34.654206,"longitude":135.490496},{"prefecture":"大阪府","city":"大阪市浪速区","town":"難波中一丁目","latitude":34.664917,"longitude":135.498899},{"prefecture":"大阪府","city":"大阪市浪速区","town":"難波中二丁目","latitude":34.66142,"longitude":135.50269},{"prefecture":"大阪府","city":"大阪市浪速区","town":"難波中三丁目","latitude":34.660964,"longitude":135.49909},{"prefecture":"大阪府","city":"大阪市浪速区","town":"日本橋三丁目","latitude":34.661988,"longitude":135.50641},{"prefecture":"大阪府","city":"大阪市浪速区","town":"日本橋四丁目","latitude":34.659987,"longitude":135.506071},{"prefecture":"大阪府","city":"大阪市浪速区","town":"日本橋五丁目","latitude":34.656724,"longitude":135.505442},{"prefecture":"大阪府","city":"大阪市浪速区","town":"日本橋西一丁目","latitude":34.659234,"longitude":135.503537},{"prefecture":"大阪府","city":"大阪市浪速区","town":"日本橋西二丁目","latitude":34.656738,"longitude":135.503059},{"prefecture":"大阪府","city":"大阪市浪速区","town":"日本橋東一丁目","latitude":34.661604,"longitude":135.508698},{"prefecture":"大阪府","city":"大阪市浪速区","town":"日本橋東二丁目","latitude":34.659508,"longitude":135.508313},{"prefecture":"大阪府","city":"大阪市浪速区","town":"日本橋東三丁目","latitude":34.656104,"longitude":135.507654},{"prefecture":"大阪府","city":"大阪市浪速区","town":"湊町一丁目","latitude":34.66725,"longitude":135.495627},{"prefecture":"大阪府","city":"大阪市浪速区","town":"湊町二丁目","latitude":34.664282,"longitude":135.494472},{"prefecture":"大阪府","city":"大阪市浪速区","town":"元町一丁目","latitude":34.665038,"longitude":135.496913},{"prefecture":"大阪府","city":"大阪市浪速区","town":"元町二丁目","latitude":34.661957,"longitude":135.495874},{"prefecture":"大阪府","city":"大阪市浪速区","town":"元町三丁目","latitude":34.660114,"longitude":135.495493},{"prefecture":"大阪府","city":"大阪市西淀川区","town":"歌島一丁目","latitude":34.715464,"longitude":135.465145},{"prefecture":"大阪府","city":"大阪市西淀川区","town":"歌島二丁目","latitude":34.714688,"longitude":135.462394},{"prefecture":"大阪府","city":"大阪市西淀川区","town":"歌島三丁目","latitude":34.713146,"longitude":135.46012},{"prefecture":"大阪府","city":"大阪市西淀川区","town":"歌島四丁目","latitude":34.718968,"longitude":135.461859},{"prefecture":"大阪府","city":"大阪市西淀川区","town":"大野一丁目","latitude":34.70218,"longitude":135.439407},{"prefecture":"大阪府","city":"大阪市西淀川区","town":"大野二丁目","latitude":34.701428,"longitude":135.436186},{"prefecture":"大阪府","city":"大阪市西淀川区","town":"大野三丁目","latitude":34.698268,"longitude":135.43638},{"prefecture":"大阪府","city":"大阪市西淀川区","town":"大和田一丁目","latitude":34.70639,"longitude":135.450555},{"prefecture":"大阪府","city":"大阪市西淀川区","town":"大和田二丁目","latitude":34.703561,"longitude":135.442086},{"prefecture":"大阪府","city":"大阪市西淀川区","town":"大和田三丁目","latitude":34.708554,"longitude":135.447762},{"prefecture":"大阪府","city":"大阪市西淀川区","town":"大和田四丁目","latitude":34.707722,"longitude":135.445689},{"prefecture":"大阪府","city":"大阪市西淀川区","town":"大和田五丁目","latitude":34.70802,"longitude":135.442894},{"prefecture":"大阪府","city":"大阪市西淀川区","town":"大和田六丁目","latitude":34.705073,"longitude":135.441158},{"prefecture":"大阪府","city":"大阪市西淀川区","town":"柏里一丁目","latitude":34.708539,"longitude":135.470857},{"prefecture":"大阪府","city":"大阪市西淀川区","town":"柏里二丁目","latitude":34.710406,"longitude":135.466691},{"prefecture":"大阪府","city":"大阪市西淀川区","town":"柏里三丁目","latitude":34.7125,"longitude":135.4668},{"prefecture":"大阪府","city":"大阪市西淀川区","town":"竹島一丁目","latitude":34.723089,"longitude":135.4585},{"prefecture":"大阪府","city":"大阪市西淀川区","town":"竹島二丁目","latitude":34.724973,"longitude":135.454674},{"prefecture":"大阪府","city":"大阪市西淀川区","town":"竹島三丁目","latitude":34.72642,"longitude":135.452844},{"prefecture":"大阪府","city":"大阪市西淀川区","town":"竹島四丁目","latitude":34.724018,"longitude":135.449949},{"prefecture":"大阪府","city":"大阪市西淀川区","town":"竹島五丁目","latitude":34.727025,"longitude":135.448491},{"prefecture":"大阪府","city":"大阪市西淀川区","town":"千舟一丁目","latitude":34.708706,"longitude":135.453687},{"prefecture":"大阪府","city":"大阪市西淀川区","town":"千舟二丁目","latitude":34.711479,"longitude":135.451204},{"prefecture":"大阪府","city":"大阪市西淀川区","town":"千舟三丁目","latitude":34.709747,"longitude":135.44966},{"prefecture":"大阪府","city":"大阪市西淀川区","town":"佃一丁目","latitude":34.718471,"longitude":135.448641},{"prefecture":"大阪府","city":"大阪市西淀川区","town":"佃二丁目","latitude":34.714194,"longitude":135.446307},{"prefecture":"大阪府","city":"大阪市西淀川区","town":"佃三丁目","latitude":34.713293,"longitude":135.442206},{"prefecture":"大阪府","city":"大阪市西淀川区","town":"佃四丁目","latitude":34.712695,"longitude":135.438944},{"prefecture":"大阪府","city":"大阪市西淀川区","town":"佃五丁目","latitude":34.711523,"longitude":135.435748},{"prefecture":"大阪府","city":"大阪市西淀川区","town":"佃六丁目","latitude":34.710389,"longitude":135.432659},{"prefecture":"大阪府","city":"大阪市西淀川区","town":"佃七丁目","latitude":34.708886,"longitude":135.429927},{"prefecture":"大阪府","city":"大阪市西淀川区","town":"出来島一丁目","latitude":34.707816,"longitude":135.438613},{"prefecture":"大阪府","city":"大阪市西淀川区","town":"出来島二丁目","latitude":34.705715,"longitude":135.436528},{"prefecture":"大阪府","city":"大阪市西淀川区","town":"出来島三丁目","latitude":34.703901,"longitude":135.434302},{"prefecture":"大阪府","city":"大阪市西淀川区","town":"中島一丁目","latitude":34.702568,"longitude":135.425009},{"prefecture":"大阪府","city":"大阪市西淀川区","town":"中島二丁目","latitude":34.696517,"longitude":135.417357},{"prefecture":"大阪府","city":"大阪市西淀川区","town":"西島一丁目","latitude":34.695647,"longitude":135.430327},{"prefecture":"大阪府","city":"大阪市西淀川区","town":"西島二丁目","latitude":34.689983,"longitude":135.424648},{"prefecture":"大阪府","city":"大阪市西淀川区","town":"野里一丁目","latitude":34.709968,"longitude":135.463902},{"prefecture":"大阪府","city":"大阪市西淀川区","town":"野里二丁目","latitude":34.709702,"longitude":135.460993},{"prefecture":"大阪府","city":"大阪市西淀川区","town":"野里三丁目","latitude":34.710509,"longitude":135.458327},{"prefecture":"大阪府","city":"大阪市西淀川区","town":"花川一丁目","latitude":34.706724,"longitude":135.468576},{"prefecture":"大阪府","city":"大阪市西淀川区","town":"花川二丁目","latitude":34.705962,"longitude":135.464671},{"prefecture":"大阪府","city":"大阪市西淀川区","town":"姫里一丁目","latitude":34.703221,"longitude":135.462406},{"prefecture":"大阪府","city":"大阪市西淀川区","town":"姫里二丁目","latitude":34.706636,"longitude":135.459761},{"prefecture":"大阪府","city":"大阪市西淀川区","town":"姫里三丁目","latitude":34.707834,"longitude":135.456515},{"prefecture":"大阪府","city":"大阪市西淀川区","town":"姫島一丁目","latitude":34.701026,"longitude":135.458004},{"prefecture":"大阪府","city":"大阪市西淀川区","town":"姫島二丁目","latitude":34.700231,"longitude":135.454142},{"prefecture":"大阪府","city":"大阪市西淀川区","town":"姫島三丁目","latitude":34.698083,"longitude":135.452096},{"prefecture":"大阪府","city":"大阪市西淀川区","town":"姫島四丁目","latitude":34.705213,"longitude":135.453203},{"prefecture":"大阪府","city":"大阪市西淀川区","town":"姫島五丁目","latitude":34.703173,"longitude":135.450998},{"prefecture":"大阪府","city":"大阪市西淀川区","town":"姫島六丁目","latitude":34.70241,"longitude":135.446912},{"prefecture":"大阪府","city":"大阪市西淀川区","town":"百島一丁目","latitude":34.695566,"longitude":135.438173},{"prefecture":"大阪府","city":"大阪市西淀川区","town":"百島二丁目","latitude":34.692796,"longitude":135.434649},{"prefecture":"大阪府","city":"大阪市西淀川区","town":"福町一丁目","latitude":34.696592,"longitude":135.447687},{"prefecture":"大阪府","city":"大阪市西淀川区","town":"福町二丁目","latitude":34.694623,"longitude":135.442974},{"prefecture":"大阪府","city":"大阪市西淀川区","town":"福町三丁目","latitude":34.701673,"longitude":135.444071},{"prefecture":"大阪府","city":"大阪市西淀川区","town":"御幣島一丁目","latitude":34.712851,"longitude":135.456994},{"prefecture":"大阪府","city":"大阪市西淀川区","town":"御幣島二丁目","latitude":34.713021,"longitude":135.453482},{"prefecture":"大阪府","city":"大阪市西淀川区","town":"御幣島三丁目","latitude":34.716931,"longitude":135.458486},{"prefecture":"大阪府","city":"大阪市西淀川区","town":"御幣島四丁目","latitude":34.716341,"longitude":135.453423},{"prefecture":"大阪府","city":"大阪市西淀川区","town":"御幣島五丁目","latitude":34.721263,"longitude":135.457666},{"prefecture":"大阪府","city":"大阪市西淀川区","town":"御幣島六丁目","latitude":34.721183,"longitude":135.452686},{"prefecture":"大阪府","city":"大阪市東淀川区","town":"相川一丁目","latitude":34.756896,"longitude":135.532179},{"prefecture":"大阪府","city":"大阪市東淀川区","town":"相川二丁目","latitude":34.757938,"longitude":135.535437},{"prefecture":"大阪府","city":"大阪市東淀川区","town":"相川三丁目","latitude":34.758983,"longitude":135.538245},{"prefecture":"大阪府","city":"大阪市東淀川区","town":"淡路一丁目","latitude":34.736508,"longitude":135.509095},{"prefecture":"大阪府","city":"大阪市東淀川区","town":"淡路二丁目","latitude":34.736565,"longitude":135.512116},{"prefecture":"大阪府","city":"大阪市東淀川区","town":"淡路三丁目","latitude":34.738582,"longitude":135.512087},{"prefecture":"大阪府","city":"大阪市東淀川区","town":"淡路四丁目","latitude":34.739946,"longitude":135.515571},{"prefecture":"大阪府","city":"大阪市東淀川区","town":"淡路五丁目","latitude":34.742651,"longitude":135.516225},{"prefecture":"大阪府","city":"大阪市東淀川区","town":"井高野一丁目","latitude":34.76255,"longitude":135.543099},{"prefecture":"大阪府","city":"大阪市東淀川区","town":"井高野二丁目","latitude":34.763201,"longitude":135.549063},{"prefecture":"大阪府","city":"大阪市東淀川区","town":"井高野三丁目","latitude":34.765192,"longitude":135.544732},{"prefecture":"大阪府","city":"大阪市東淀川区","town":"井高野四丁目","latitude":34.766098,"longitude":135.549839},{"prefecture":"大阪府","city":"大阪市東淀川区","town":"大隅一丁目","latitude":34.748378,"longitude":135.540204},{"prefecture":"大阪府","city":"大阪市東淀川区","town":"大隅二丁目","latitude":34.750391,"longitude":135.545326},{"prefecture":"大阪府","city":"大阪市東淀川区","town":"上新庄一丁目","latitude":34.745156,"longitude":135.52897},{"prefecture":"大阪府","city":"大阪市東淀川区","town":"上新庄二丁目","latitude":34.748114,"longitude":135.530648},{"prefecture":"大阪府","city":"大阪市東淀川区","town":"上新庄三丁目","latitude":34.751875,"longitude":135.532283},{"prefecture":"大阪府","city":"大阪市東淀川区","town":"北江口一丁目","latitude":34.758993,"longitude":135.541483},{"prefecture":"大阪府","city":"大阪市東淀川区","town":"北江口二丁目","latitude":34.759077,"longitude":135.545163},{"prefecture":"大阪府","city":"大阪市東淀川区","town":"北江口三丁目","latitude":34.760369,"longitude":135.545978},{"prefecture":"大阪府","city":"大阪市東淀川区","town":"北江口四丁目","latitude":34.759031,"longitude":135.548779},{"prefecture":"大阪府","city":"大阪市東淀川区","town":"柴島一丁目","latitude":34.727286,"longitude":135.50807},{"prefecture":"大阪府","city":"大阪市東淀川区","town":"柴島二丁目","latitude":34.725172,"longitude":135.513471},{"prefecture":"大阪府","city":"大阪市東淀川区","town":"柴島三丁目","latitude":34.731437,"longitude":135.516964},{"prefecture":"大阪府","city":"大阪市東淀川区","town":"小松一丁目","latitude":34.752086,"longitude":135.534622},{"prefecture":"大阪府","city":"大阪市東淀川区","town":"小松二丁目","latitude":34.753285,"longitude":135.536704},{"prefecture":"大阪府","city":"大阪市東淀川区","town":"小松三丁目","latitude":34.753777,"longitude":135.539064},{"prefecture":"大阪府","city":"大阪市東淀川区","town":"小松四丁目","latitude":34.753512,"longitude":135.542639},{"prefecture":"大阪府","city":"大阪市東淀川区","town":"小松五丁目","latitude":34.753901,"longitude":135.547212},{"prefecture":"大阪府","city":"大阪市東淀川区","town":"下新庄一丁目","latitude":34.743554,"longitude":135.518693},{"prefecture":"大阪府","city":"大阪市東淀川区","town":"下新庄二丁目","latitude":34.743397,"longitude":135.520694},{"prefecture":"大阪府","city":"大阪市東淀川区","town":"下新庄三丁目","latitude":34.744248,"longitude":135.523985},{"prefecture":"大阪府","city":"大阪市東淀川区","town":"下新庄四丁目","latitude":34.74741,"longitude":135.517554},{"prefecture":"大阪府","city":"大阪市東淀川区","town":"下新庄五丁目","latitude":34.747621,"longitude":135.521621},{"prefecture":"大阪府","city":"大阪市東淀川区","town":"下新庄六丁目","latitude":34.747282,"longitude":135.525725},{"prefecture":"大阪府","city":"大阪市東淀川区","town":"菅原一丁目","latitude":34.735809,"longitude":135.527162},{"prefecture":"大阪府","city":"大阪市東淀川区","town":"菅原二丁目","latitude":34.736365,"longitude":135.532098},{"prefecture":"大阪府","city":"大阪市東淀川区","town":"菅原三丁目","latitude":34.739438,"longitude":135.525761},{"prefecture":"大阪府","city":"大阪市東淀川区","town":"菅原四丁目","latitude":34.740493,"longitude":135.528641},{"prefecture":"大阪府","city":"大阪市東淀川区","town":"菅原五丁目","latitude":34.740364,"longitude":135.51914},{"prefecture":"大阪府","city":"大阪市東淀川区","town":"菅原六丁目","latitude":34.739816,"longitude":135.521899},{"prefecture":"大阪府","city":"大阪市東淀川区","town":"菅原七丁目","latitude":34.741375,"longitude":135.523627},{"prefecture":"大阪府","city":"大阪市東淀川区","town":"瑞光一丁目","latitude":34.748686,"longitude":135.535405},{"prefecture":"大阪府","city":"大阪市東淀川区","town":"瑞光二丁目","latitude":34.750041,"longitude":135.539173},{"prefecture":"大阪府","city":"大阪市東淀川区","town":"瑞光三丁目","latitude":34.751217,"longitude":135.542592},{"prefecture":"大阪府","city":"大阪市東淀川区","town":"瑞光四丁目","latitude":34.752449,"longitude":135.547018},{"prefecture":"大阪府","city":"大阪市東淀川区","town":"瑞光五丁目","latitude":34.752953,"longitude":135.551733},{"prefecture":"大阪府","city":"大阪市東淀川区","town":"大桐一丁目","latitude":34.745098,"longitude":135.54545},{"prefecture":"大阪府","city":"大阪市東淀川区","town":"大桐二丁目","latitude":34.747137,"longitude":135.543223},{"prefecture":"大阪府","city":"大阪市東淀川区","town":"大桐三丁目","latitude":34.748213,"longitude":135.546113},{"prefecture":"大阪府","city":"大阪市東淀川区","town":"大桐四丁目","latitude":34.74791,"longitude":135.552092},{"prefecture":"大阪府","city":"大阪市東淀川区","town":"大桐五丁目","latitude":34.750369,"longitude":135.552434},{"prefecture":"大阪府","city":"大阪市東淀川区","town":"大道南一丁目","latitude":34.740405,"longitude":135.551308},{"prefecture":"大阪府","city":"大阪市東淀川区","town":"大道南二丁目","latitude":34.743848,"longitude":135.552117},{"prefecture":"大阪府","city":"大阪市東淀川区","town":"大道南三丁目","latitude":34.743507,"longitude":135.54693},{"prefecture":"大阪府","city":"大阪市東淀川区","town":"豊里一丁目","latitude":34.736921,"longitude":135.535973},{"prefecture":"大阪府","city":"大阪市東淀川区","town":"豊里二丁目","latitude":34.737832,"longitude":135.538482},{"prefecture":"大阪府","city":"大阪市東淀川区","town":"豊里三丁目","latitude":34.737605,"longitude":135.548232},{"prefecture":"大阪府","city":"大阪市東淀川区","town":"豊里四丁目","latitude":34.739431,"longitude":135.540707},{"prefecture":"大阪府","city":"大阪市東淀川区","town":"豊里五丁目","latitude":34.740389,"longitude":135.544349},{"prefecture":"大阪府","city":"大阪市東淀川区","town":"豊里六丁目","latitude":34.741628,"longitude":135.538829},{"prefecture":"大阪府","city":"大阪市東淀川区","town":"豊里七丁目","latitude":34.744061,"longitude":135.541564},{"prefecture":"大阪府","city":"大阪市東淀川区","town":"西淡路一丁目","latitude":34.73711,"longitude":135.504558},{"prefecture":"大阪府","city":"大阪市東淀川区","town":"西淡路二丁目","latitude":34.736895,"longitude":135.50699},{"prefecture":"大阪府","city":"大阪市東淀川区","town":"西淡路三丁目","latitude":34.739619,"longitude":135.508805},{"prefecture":"大阪府","city":"大阪市東淀川区","town":"西淡路四丁目","latitude":34.742088,"longitude":135.507907},{"prefecture":"大阪府","city":"大阪市東淀川区","town":"西淡路五丁目","latitude":34.742622,"longitude":135.512139},{"prefecture":"大阪府","city":"大阪市東淀川区","town":"西淡路六丁目","latitude":34.746388,"longitude":135.51345},{"prefecture":"大阪府","city":"大阪市東淀川区","town":"東淡路一丁目","latitude":34.734585,"longitude":135.521291},{"prefecture":"大阪府","city":"大阪市東淀川区","town":"東淡路二丁目","latitude":34.736098,"longitude":135.515869},{"prefecture":"大阪府","city":"大阪市東淀川区","town":"東淡路三丁目","latitude":34.735753,"longitude":135.520111},{"prefecture":"大阪府","city":"大阪市東淀川区","town":"東淡路四丁目","latitude":34.738462,"longitude":135.518584},{"prefecture":"大阪府","city":"大阪市東淀川区","town":"東淡路五丁目","latitude":34.737545,"longitude":135.521332},{"prefecture":"大阪府","city":"大阪市東淀川区","town":"東中島一丁目","latitude":34.730218,"longitude":135.502842},{"prefecture":"大阪府","city":"大阪市東淀川区","town":"東中島二丁目","latitude":34.727926,"longitude":135.505166},{"prefecture":"大阪府","city":"大阪市東淀川区","town":"東中島三丁目","latitude":34.730424,"longitude":135.506527},{"prefecture":"大阪府","city":"大阪市東淀川区","town":"東中島四丁目","latitude":34.732862,"longitude":135.505922},{"prefecture":"大阪府","city":"大阪市東淀川区","town":"東中島五丁目","latitude":34.733226,"longitude":135.508977},{"prefecture":"大阪府","city":"大阪市東淀川区","town":"東中島六丁目","latitude":34.733444,"longitude":135.511339},{"prefecture":"大阪府","city":"大阪市東淀川区","town":"豊新一丁目","latitude":34.742015,"longitude":135.532822},{"prefecture":"大阪府","city":"大阪市東淀川区","town":"豊新二丁目","latitude":34.742652,"longitude":135.528669},{"prefecture":"大阪府","city":"大阪市東淀川区","town":"豊新三丁目","latitude":34.744842,"longitude":135.532102},{"prefecture":"大阪府","city":"大阪市東淀川区","town":"豊新四丁目","latitude":34.744611,"longitude":135.535675},{"prefecture":"大阪府","city":"大阪市東淀川区","town":"豊新五丁目","latitude":34.746663,"longitude":135.53648},{"prefecture":"大阪府","city":"大阪市東淀川区","town":"南江口一丁目","latitude":34.755768,"longitude":135.543111},{"prefecture":"大阪府","city":"大阪市東淀川区","town":"南江口二丁目","latitude":34.755732,"longitude":135.548412},{"prefecture":"大阪府","city":"大阪市東淀川区","town":"南江口三丁目","latitude":34.754137,"longitude":135.555275},{"prefecture":"大阪府","city":"大阪市東成区","town":"大今里一丁目","latitude":34.67274,"longitude":135.545765},{"prefecture":"大阪府","city":"大阪市東成区","town":"大今里二丁目","latitude":34.672313,"longitude":135.550075},{"prefecture":"大阪府","city":"大阪市東成区","town":"大今里三丁目","latitude":34.669663,"longitude":135.545268},{"prefecture":"大阪府","city":"大阪市東成区","town":"大今里四丁目","latitude":34.669166,"longitude":135.549539},{"prefecture":"大阪府","city":"大阪市東成区","town":"大今里西一丁目","latitude":34.671709,"longitude":135.541497},{"prefecture":"大阪府","city":"大阪市東成区","town":"大今里西二丁目","latitude":34.670001,"longitude":135.540377},{"prefecture":"大阪府","city":"大阪市東成区","town":"大今里西三丁目","latitude":34.667287,"longitude":135.540953},{"prefecture":"大阪府","city":"大阪市東成区","town":"大今里南一丁目","latitude":34.6672,"longitude":135.544318},{"prefecture":"大阪府","city":"大阪市東成区","town":"大今里南二丁目","latitude":34.666622,"longitude":135.547179},{"prefecture":"大阪府","city":"大阪市東成区","town":"大今里南三丁目","latitude":34.666446,"longitude":135.5499},{"prefecture":"大阪府","city":"大阪市東成区","town":"大今里南四丁目","latitude":34.666368,"longitude":135.552104},{"prefecture":"大阪府","city":"大阪市東成区","town":"大今里南五丁目","latitude":34.666376,"longitude":135.554008},{"prefecture":"大阪府","city":"大阪市東成区","town":"大今里南六丁目","latitude":34.666336,"longitude":135.556091},{"prefecture":"大阪府","city":"大阪市東成区","town":"神路一丁目","latitude":34.678471,"longitude":135.55456},{"prefecture":"大阪府","city":"大阪市東成区","town":"神路二丁目","latitude":34.674724,"longitude":135.554},{"prefecture":"大阪府","city":"大阪市東成区","town":"神路三丁目","latitude":34.671854,"longitude":135.553513},{"prefecture":"大阪府","city":"大阪市東成区","town":"神路四丁目","latitude":34.669151,"longitude":135.55319},{"prefecture":"大阪府","city":"大阪市東成区","town":"玉津一丁目","latitude":34.672361,"longitude":135.537752},{"prefecture":"大阪府","city":"大阪市東成区","town":"玉津二丁目","latitude":34.668495,"longitude":135.537109},{"prefecture":"大阪府","city":"大阪市東成区","town":"玉津三丁目","latitude":34.666724,"longitude":135.537442},{"prefecture":"大阪府","city":"大阪市東成区","town":"中道一丁目","latitude":34.679666,"longitude":135.535672},{"prefecture":"大阪府","city":"大阪市東成区","town":"中道二丁目","latitude":34.679483,"longitude":135.538719},{"prefecture":"大阪府","city":"大阪市東成区","town":"中道三丁目","latitude":34.676191,"longitude":135.535134},{"prefecture":"大阪府","city":"大阪市東成区","town":"中道四丁目","latitude":34.675779,"longitude":135.537526},{"prefecture":"大阪府","city":"大阪市東成区","town":"中本一丁目","latitude":34.682001,"longitude":135.541683},{"prefecture":"大阪府","city":"大阪市東成区","town":"中本二丁目","latitude":34.679818,"longitude":135.541696},{"prefecture":"大阪府","city":"大阪市東成区","town":"中本三丁目","latitude":34.679109,"longitude":135.543178},{"prefecture":"大阪府","city":"大阪市東成区","town":"中本四丁目","latitude":34.676618,"longitude":135.539625},{"prefecture":"大阪府","city":"大阪市東成区","town":"中本五丁目","latitude":34.676242,"longitude":135.542352},{"prefecture":"大阪府","city":"大阪市東成区","town":"東今里一丁目","latitude":34.680418,"longitude":135.55148},{"prefecture":"大阪府","city":"大阪市東成区","town":"東今里二丁目","latitude":34.678331,"longitude":135.55115},{"prefecture":"大阪府","city":"大阪市東成区","town":"東今里三丁目","latitude":34.675626,"longitude":135.550658},{"prefecture":"大阪府","city":"大阪市東成区","town":"東小橋一丁目","latitude":34.672645,"longitude":135.53473},{"prefecture":"大阪府","city":"大阪市東成区","town":"東小橋二丁目","latitude":34.669507,"longitude":135.533674},{"prefecture":"大阪府","city":"大阪市東成区","town":"東小橋三丁目","latitude":34.666902,"longitude":135.532887},{"prefecture":"大阪府","city":"大阪市東成区","town":"東中本一丁目","latitude":34.680973,"longitude":135.547074},{"prefecture":"大阪府","city":"大阪市東成区","town":"東中本二丁目","latitude":34.678958,"longitude":135.546753},{"prefecture":"大阪府","city":"大阪市東成区","town":"東中本三丁目","latitude":34.676095,"longitude":135.546303},{"prefecture":"大阪府","city":"大阪市東成区","town":"深江北一丁目","latitude":34.676495,"longitude":135.556687},{"prefecture":"大阪府","city":"大阪市東成区","town":"深江北二丁目","latitude":34.675883,"longitude":135.558817},{"prefecture":"大阪府","city":"大阪市東成区","town":"深江北三丁目","latitude":34.675735,"longitude":135.561473},{"prefecture":"大阪府","city":"大阪市東成区","town":"深江南一丁目","latitude":34.670875,"longitude":135.555998},{"prefecture":"大阪府","city":"大阪市東成区","town":"深江南二丁目","latitude":34.670594,"longitude":135.558389},{"prefecture":"大阪府","city":"大阪市東成区","town":"深江南三丁目","latitude":34.670575,"longitude":135.560831},{"prefecture":"大阪府","city":"大阪市生野区","town":"生野西一丁目","latitude":34.650341,"longitude":135.526426},{"prefecture":"大阪府","city":"大阪市生野区","town":"生野西二丁目","latitude":34.64777,"longitude":135.525974},{"prefecture":"大阪府","city":"大阪市生野区","town":"生野西三丁目","latitude":34.65032,"longitude":135.529017},{"prefecture":"大阪府","city":"大阪市生野区","town":"生野西四丁目","latitude":34.647896,"longitude":135.528282},{"prefecture":"大阪府","city":"大阪市生野区","town":"生野東一丁目","latitude":34.650126,"longitude":135.531932},{"prefecture":"大阪府","city":"大阪市生野区","town":"生野東二丁目","latitude":34.647341,"longitude":135.531429},{"prefecture":"大阪府","city":"大阪市生野区","town":"生野東三丁目","latitude":34.650221,"longitude":135.534556},{"prefecture":"大阪府","city":"大阪市生野区","town":"生野東四丁目","latitude":34.647251,"longitude":135.534496},{"prefecture":"大阪府","city":"大阪市生野区","town":"勝山北一丁目","latitude":34.656065,"longitude":135.529111},{"prefecture":"大阪府","city":"大阪市生野区","town":"勝山北二丁目","latitude":34.656107,"longitude":135.531748},{"prefecture":"大阪府","city":"大阪市生野区","town":"勝山北三丁目","latitude":34.655936,"longitude":135.534213},{"prefecture":"大阪府","city":"大阪市生野区","town":"勝山北四丁目","latitude":34.655919,"longitude":135.536665},{"prefecture":"大阪府","city":"大阪市生野区","town":"勝山北五丁目","latitude":34.655591,"longitude":135.53874},{"prefecture":"大阪府","city":"大阪市生野区","town":"勝山南一丁目","latitude":34.653285,"longitude":135.528465},{"prefecture":"大阪府","city":"大阪市生野区","town":"勝山南二丁目","latitude":34.653133,"longitude":135.531038},{"prefecture":"大阪府","city":"大阪市生野区","town":"勝山南三丁目","latitude":34.653021,"longitude":135.534218},{"prefecture":"大阪府","city":"大阪市生野区","town":"勝山南四丁目","latitude":34.652846,"longitude":135.538453},{"prefecture":"大阪府","city":"大阪市生野区","town":"舎利寺一丁目","latitude":34.651113,"longitude":135.538241},{"prefecture":"大阪府","city":"大阪市生野区","town":"舎利寺二丁目","latitude":34.649177,"longitude":135.538101},{"prefecture":"大阪府","city":"大阪市生野区","town":"舎利寺三丁目","latitude":34.647023,"longitude":135.537875},{"prefecture":"大阪府","city":"大阪市生野区","town":"小路一丁目","latitude":34.66321,"longitude":135.554333},{"prefecture":"大阪府","city":"大阪市生野区","town":"小路二丁目","latitude":34.660195,"longitude":135.554239},{"prefecture":"大阪府","city":"大阪市生野区","town":"小路三丁目","latitude":34.657254,"longitude":135.554456},{"prefecture":"大阪府","city":"大阪市生野区","town":"小路東一丁目","latitude":34.662974,"longitude":135.557682},{"prefecture":"大阪府","city":"大阪市生野区","town":"小路東二丁目","latitude":34.660097,"longitude":135.557497},{"prefecture":"大阪府","city":"大阪市生野区","town":"小路東三丁目","latitude":34.659958,"longitude":135.560254},{"prefecture":"大阪府","city":"大阪市生野区","town":"小路東四丁目","latitude":34.657152,"longitude":135.557268},{"prefecture":"大阪府","city":"大阪市生野区","town":"小路東五丁目","latitude":34.65712,"longitude":135.560245},{"prefecture":"大阪府","city":"大阪市生野区","town":"小路東六丁目","latitude":34.657104,"longitude":135.562812},{"prefecture":"大阪府","city":"大阪市生野区","town":"新今里一丁目","latitude":34.663815,"longitude":135.544597},{"prefecture":"大阪府","city":"大阪市生野区","town":"新今里二丁目","latitude":34.663613,"longitude":135.547147},{"prefecture":"大阪府","city":"大阪市生野区","town":"新今里三丁目","latitude":34.660377,"longitude":135.546545},{"prefecture":"大阪府","city":"大阪市生野区","town":"新今里四丁目","latitude":34.663392,"longitude":135.549406},{"prefecture":"大阪府","city":"大阪市生野区","town":"新今里五丁目","latitude":34.660221,"longitude":135.548826},{"prefecture":"大阪府","city":"大阪市生野区","town":"新今里六丁目","latitude":34.663302,"longitude":135.551425},{"prefecture":"大阪府","city":"大阪市生野区","town":"新今里七丁目","latitude":34.660168,"longitude":135.551069},{"prefecture":"大阪府","city":"大阪市生野区","town":"田島一丁目","latitude":34.652212,"longitude":135.542346},{"prefecture":"大阪府","city":"大阪市生野区","town":"田島二丁目","latitude":34.650051,"longitude":135.542219},{"prefecture":"大阪府","city":"大阪市生野区","town":"田島三丁目","latitude":34.648352,"longitude":135.54214},{"prefecture":"大阪府","city":"大阪市生野区","town":"田島四丁目","latitude":34.646478,"longitude":135.542099},{"prefecture":"大阪府","city":"大阪市生野区","town":"田島五丁目","latitude":34.644109,"longitude":135.542126},{"prefecture":"大阪府","city":"大阪市生野区","town":"田島六丁目","latitude":34.64179,"longitude":135.54188},{"prefecture":"大阪府","city":"大阪市生野区","town":"巽北一丁目","latitude":34.654894,"longitude":135.545674},{"prefecture":"大阪府","city":"大阪市生野区","town":"巽北二丁目","latitude":34.655083,"longitude":135.550336},{"prefecture":"大阪府","city":"大阪市生野区","town":"巽北三丁目","latitude":34.65518,"longitude":135.553953},{"prefecture":"大阪府","city":"大阪市生野区","town":"巽北四丁目","latitude":34.654444,"longitude":135.557325},{"prefecture":"大阪府","city":"大阪市生野区","town":"巽中一丁目","latitude":34.652045,"longitude":135.55158},{"prefecture":"大阪府","city":"大阪市生野区","town":"巽中二丁目","latitude":34.649443,"longitude":135.551414},{"prefecture":"大阪府","city":"大阪市生野区","town":"巽中三丁目","latitude":34.646683,"longitude":135.551233},{"prefecture":"大阪府","city":"大阪市生野区","town":"巽中四丁目","latitude":34.643913,"longitude":135.551059},{"prefecture":"大阪府","city":"大阪市生野区","town":"巽西一丁目","latitude":34.652001,"longitude":135.546189},{"prefecture":"大阪府","city":"大阪市生野区","town":"巽西二丁目","latitude":34.649169,"longitude":135.546354},{"prefecture":"大阪府","city":"大阪市生野区","town":"巽西三丁目","latitude":34.646464,"longitude":135.546577},{"prefecture":"大阪府","city":"大阪市生野区","town":"巽西四丁目","latitude":34.643799,"longitude":135.546856},{"prefecture":"大阪府","city":"大阪市生野区","town":"巽東一丁目","latitude":34.650811,"longitude":135.555747},{"prefecture":"大阪府","city":"大阪市生野区","town":"巽東二丁目","latitude":34.645668,"longitude":135.555407},{"prefecture":"大阪府","city":"大阪市生野区","town":"巽東三丁目","latitude":34.650957,"longitude":135.559439},{"prefecture":"大阪府","city":"大阪市生野区","town":"巽東四丁目","latitude":34.646139,"longitude":135.55904},{"prefecture":"大阪府","city":"大阪市生野区","town":"巽南一丁目","latitude":34.641266,"longitude":135.54689},{"prefecture":"大阪府","city":"大阪市生野区","town":"巽南二丁目","latitude":34.637782,"longitude":135.547773},{"prefecture":"大阪府","city":"大阪市生野区","town":"巽南三丁目","latitude":34.64132,"longitude":135.551366},{"prefecture":"大阪府","city":"大阪市生野区","town":"巽南四丁目","latitude":34.637657,"longitude":135.549847},{"prefecture":"大阪府","city":"大阪市生野区","town":"巽南五丁目","latitude":34.636682,"longitude":135.551351},{"prefecture":"大阪府","city":"大阪市生野区","town":"鶴橋一丁目","latitude":34.66378,"longitude":135.530765},{"prefecture":"大阪府","city":"大阪市生野区","town":"鶴橋二丁目","latitude":34.663924,"longitude":135.532743},{"prefecture":"大阪府","city":"大阪市生野区","town":"鶴橋三丁目","latitude":34.663926,"longitude":135.535123},{"prefecture":"大阪府","city":"大阪市生野区","town":"鶴橋四丁目","latitude":34.663817,"longitude":135.53701},{"prefecture":"大阪府","city":"大阪市生野区","town":"鶴橋五丁目","latitude":34.663833,"longitude":135.538549},{"prefecture":"大阪府","city":"大阪市生野区","town":"中川一丁目","latitude":34.663515,"longitude":135.542719},{"prefecture":"大阪府","city":"大阪市生野区","town":"中川二丁目","latitude":34.660399,"longitude":135.542876},{"prefecture":"大阪府","city":"大阪市生野区","town":"中川三丁目","latitude":34.660218,"longitude":135.544614},{"prefecture":"大阪府","city":"大阪市生野区","town":"中川四丁目","latitude":34.657496,"longitude":135.542676},{"prefecture":"大阪府","city":"大阪市生野区","town":"中川五丁目","latitude":34.657482,"longitude":135.545186},{"prefecture":"大阪府","city":"大阪市生野区","town":"中川六丁目","latitude":34.654933,"longitude":135.542022},{"prefecture":"大阪府","city":"大阪市生野区","town":"中川西一丁目","latitude":34.663851,"longitude":135.54083},{"prefecture":"大阪府","city":"大阪市生野区","town":"中川西二丁目","latitude":34.659854,"longitude":135.540684},{"prefecture":"大阪府","city":"大阪市生野区","town":"中川西三丁目","latitude":34.655593,"longitude":135.540545},{"prefecture":"大阪府","city":"大阪市生野区","town":"中川東一丁目","latitude":34.657476,"longitude":135.547738},{"prefecture":"大阪府","city":"大阪市生野区","town":"中川東二丁目","latitude":34.657442,"longitude":135.550985},{"prefecture":"大阪府","city":"大阪市生野区","town":"林寺一丁目","latitude":34.645581,"longitude":135.52886},{"prefecture":"大阪府","city":"大阪市生野区","town":"林寺二丁目","latitude":34.644161,"longitude":135.531412},{"prefecture":"大阪府","city":"大阪市生野区","town":"林寺三丁目","latitude":34.644894,"longitude":135.534632},{"prefecture":"大阪府","city":"大阪市生野区","town":"林寺四丁目","latitude":34.641927,"longitude":135.534082},{"prefecture":"大阪府","city":"大阪市生野区","town":"林寺五丁目","latitude":34.644641,"longitude":135.53771},{"prefecture":"大阪府","city":"大阪市生野区","town":"林寺六丁目","latitude":34.642177,"longitude":135.537119},{"prefecture":"大阪府","city":"大阪市生野区","town":"桃谷一丁目","latitude":34.659827,"longitude":135.529717},{"prefecture":"大阪府","city":"大阪市生野区","town":"桃谷二丁目","latitude":34.660042,"longitude":135.532293},{"prefecture":"大阪府","city":"大阪市生野区","town":"桃谷三丁目","latitude":34.660035,"longitude":135.5351},{"prefecture":"大阪府","city":"大阪市生野区","town":"桃谷四丁目","latitude":34.659863,"longitude":135.53709},{"prefecture":"大阪府","city":"大阪市生野区","town":"桃谷五丁目","latitude":34.659757,"longitude":135.538808},{"prefecture":"大阪府","city":"大阪市旭区","town":"赤川一丁目","latitude":34.722616,"longitude":135.533157},{"prefecture":"大阪府","city":"大阪市旭区","town":"赤川二丁目","latitude":34.725433,"longitude":135.532817},{"prefecture":"大阪府","city":"大阪市旭区","town":"赤川三丁目","latitude":34.726932,"longitude":135.530975},{"prefecture":"大阪府","city":"大阪市旭区","town":"赤川四丁目","latitude":34.730036,"longitude":135.530818},{"prefecture":"大阪府","city":"大阪市旭区","town":"生江一丁目","latitude":34.722293,"longitude":135.536557},{"prefecture":"大阪府","city":"大阪市旭区","town":"生江二丁目","latitude":34.724827,"longitude":135.536687},{"prefecture":"大阪府","city":"大阪市旭区","town":"生江三丁目","latitude":34.730291,"longitude":135.537441},{"prefecture":"大阪府","city":"大阪市旭区","town":"今市一丁目","latitude":34.727629,"longitude":135.551786},{"prefecture":"大阪府","city":"大阪市旭区","town":"今市二丁目","latitude":34.728241,"longitude":135.553924},{"prefecture":"大阪府","city":"大阪市旭区","town":"大宮一丁目","latitude":34.721028,"longitude":135.545766},{"prefecture":"大阪府","city":"大阪市旭区","town":"大宮二丁目","latitude":34.723456,"longitude":135.546387},{"prefecture":"大阪府","city":"大阪市旭区","town":"大宮三丁目","latitude":34.725463,"longitude":135.547125},{"prefecture":"大阪府","city":"大阪市旭区","town":"大宮四丁目","latitude":34.727942,"longitude":135.547528},{"prefecture":"大阪府","city":"大阪市旭区","town":"大宮五丁目","latitude":34.732278,"longitude":135.547588},{"prefecture":"大阪府","city":"大阪市旭区","town":"清水一丁目","latitude":34.722161,"longitude":135.554874},{"prefecture":"大阪府","city":"大阪市旭区","town":"清水二丁目","latitude":34.722162,"longitude":135.557902},{"prefecture":"大阪府","city":"大阪市旭区","town":"清水三丁目","latitude":34.723875,"longitude":135.558441},{"prefecture":"大阪府","city":"大阪市旭区","town":"清水四丁目","latitude":34.721478,"longitude":135.563171},{"prefecture":"大阪府","city":"大阪市旭区","town":"清水五丁目","latitude":34.723809,"longitude":135.562701},{"prefecture":"大阪府","city":"大阪市旭区","town":"新森一丁目","latitude":34.716611,"longitude":135.551604},{"prefecture":"大阪府","city":"大阪市旭区","town":"新森二丁目","latitude":34.717331,"longitude":135.554054},{"prefecture":"大阪府","city":"大阪市旭区","town":"新森三丁目","latitude":34.720042,"longitude":135.55339},{"prefecture":"大阪府","city":"大阪市旭区","town":"新森四丁目","latitude":34.716879,"longitude":135.558271},{"prefecture":"大阪府","city":"大阪市旭区","town":"新森五丁目","latitude":34.719469,"longitude":135.558384},{"prefecture":"大阪府","city":"大阪市旭区","town":"新森六丁目","latitude":34.717022,"longitude":135.561727},{"prefecture":"大阪府","city":"大阪市旭区","town":"新森七丁目","latitude":34.719427,"longitude":135.563574},{"prefecture":"大阪府","city":"大阪市旭区","town":"千林一丁目","latitude":34.72319,"longitude":135.553015},{"prefecture":"大阪府","city":"大阪市旭区","town":"千林二丁目","latitude":34.724872,"longitude":135.552273},{"prefecture":"大阪府","city":"大阪市旭区","town":"太子橋一丁目","latitude":34.733072,"longitude":135.551631},{"prefecture":"大阪府","city":"大阪市旭区","town":"太子橋二丁目","latitude":34.736295,"longitude":135.554392},{"prefecture":"大阪府","city":"大阪市旭区","town":"太子橋三丁目","latitude":34.740904,"longitude":135.557712},{"prefecture":"大阪府","city":"大阪市旭区","town":"高殿一丁目","latitude":34.719733,"longitude":135.53484},{"prefecture":"大阪府","city":"大阪市旭区","town":"高殿二丁目","latitude":34.718012,"longitude":135.536869},{"prefecture":"大阪府","city":"大阪市旭区","town":"高殿三丁目","latitude":34.71426,"longitude":135.539786},{"prefecture":"大阪府","city":"大阪市旭区","town":"高殿四丁目","latitude":34.714201,"longitude":135.542476},{"prefecture":"大阪府","city":"大阪市旭区","town":"高殿五丁目","latitude":34.718585,"longitude":135.5406},{"prefecture":"大阪府","city":"大阪市旭区","town":"高殿六丁目","latitude":34.718144,"longitude":135.545112},{"prefecture":"大阪府","city":"大阪市旭区","town":"高殿七丁目","latitude":34.717387,"longitude":135.548713},{"prefecture":"大阪府","city":"大阪市旭区","town":"中宮一丁目","latitude":34.721916,"longitude":135.541096},{"prefecture":"大阪府","city":"大阪市旭区","town":"中宮二丁目","latitude":34.724086,"longitude":135.541267},{"prefecture":"大阪府","city":"大阪市旭区","town":"中宮三丁目","latitude":34.726054,"longitude":135.541602},{"prefecture":"大阪府","city":"大阪市旭区","town":"中宮四丁目","latitude":34.727595,"longitude":135.541495},{"prefecture":"大阪府","city":"大阪市旭区","town":"中宮五丁目","latitude":34.731304,"longitude":135.542574},{"prefecture":"大阪府","city":"大阪市旭区","town":"森小路一丁目","latitude":34.720028,"longitude":135.549531},{"prefecture":"大阪府","city":"大阪市旭区","town":"森小路二丁目","latitude":34.721857,"longitude":135.551348},{"prefecture":"大阪府","city":"大阪市城東区","town":"今福西一丁目","latitude":34.69896,"longitude":135.547961},{"prefecture":"大阪府","city":"大阪市城東区","town":"今福西二丁目","latitude":34.699699,"longitude":135.551786},{"prefecture":"大阪府","city":"大阪市城東区","town":"今福西三丁目","latitude":34.701634,"longitude":135.548109},{"prefecture":"大阪府","city":"大阪市城東区","town":"今福西四丁目","latitude":34.701609,"longitude":135.55196},{"prefecture":"大阪府","city":"大阪市城東区","town":"今福西五丁目","latitude":34.704005,"longitude":135.547984},{"prefecture":"大阪府","city":"大阪市城東区","town":"今福西六丁目","latitude":34.703988,"longitude":135.551862},{"prefecture":"大阪府","city":"大阪市城東区","town":"今福東一丁目","latitude":34.700536,"longitude":135.557464},{"prefecture":"大阪府","city":"大阪市城東区","town":"今福東二丁目","latitude":34.702384,"longitude":135.556955},{"prefecture":"大阪府","city":"大阪市城東区","town":"今福東三丁目","latitude":34.704377,"longitude":135.557022},{"prefecture":"大阪府","city":"大阪市城東区","town":"今福南一丁目","latitude":34.69684,"longitude":135.548216},{"prefecture":"大阪府","city":"大阪市城東区","town":"今福南二丁目","latitude":34.697244,"longitude":135.551892},{"prefecture":"大阪府","city":"大阪市城東区","town":"今福南三丁目","latitude":34.69657,"longitude":135.556691},{"prefecture":"大阪府","city":"大阪市城東区","town":"今福南四丁目","latitude":34.698595,"longitude":135.556768},{"prefecture":"大阪府","city":"大阪市城東区","town":"蒲生一丁目","latitude":34.698432,"longitude":135.537448},{"prefecture":"大阪府","city":"大阪市城東区","town":"蒲生二丁目","latitude":34.699891,"longitude":135.540078},{"prefecture":"大阪府","city":"大阪市城東区","town":"蒲生三丁目","latitude":34.698898,"longitude":135.542642},{"prefecture":"大阪府","city":"大阪市城東区","town":"蒲生四丁目","latitude":34.698697,"longitude":135.545054},{"prefecture":"大阪府","city":"大阪市城東区","town":"新喜多一丁目","latitude":34.696734,"longitude":135.537457},{"prefecture":"大阪府","city":"大阪市城東区","town":"新喜多二丁目","latitude":34.697085,"longitude":135.543509},{"prefecture":"大阪府","city":"大阪市城東区","town":"新喜多東一丁目","latitude":34.694879,"longitude":135.549431},{"prefecture":"大阪府","city":"大阪市城東区","town":"新喜多東二丁目","latitude":34.692333,"longitude":135.551734},{"prefecture":"大阪府","city":"大阪市城東区","town":"鴫野西一丁目","latitude":34.694548,"longitude":135.537136},{"prefecture":"大阪府","city":"大阪市城東区","town":"鴫野西二丁目","latitude":34.691337,"longitude":135.537673},{"prefecture":"大阪府","city":"大阪市城東区","town":"鴫野西三丁目","latitude":34.694804,"longitude":135.541379},{"prefecture":"大阪府","city":"大阪市城東区","town":"鴫野西四丁目","latitude":34.691291,"longitude":135.540828},{"prefecture":"大阪府","city":"大阪市城東区","town":"鴫野西五丁目","latitude":34.691181,"longitude":135.544055},{"prefecture":"大阪府","city":"大阪市城東区","town":"鴫野東一丁目","latitude":34.694521,"longitude":135.545027},{"prefecture":"大阪府","city":"大阪市城東区","town":"鴫野東二丁目","latitude":34.693455,"longitude":135.547647},{"prefecture":"大阪府","city":"大阪市城東区","town":"鴫野東三丁目","latitude":34.690243,"longitude":135.548041},{"prefecture":"大阪府","city":"大阪市城東区","town":"諏訪一丁目","latitude":34.686094,"longitude":135.561839},{"prefecture":"大阪府","city":"大阪市城東区","town":"諏訪二丁目","latitude":34.684723,"longitude":135.561372},{"prefecture":"大阪府","city":"大阪市城東区","town":"諏訪三丁目","latitude":34.682508,"longitude":135.561293},{"prefecture":"大阪府","city":"大阪市城東区","town":"諏訪四丁目","latitude":34.679781,"longitude":135.560758},{"prefecture":"大阪府","city":"大阪市城東区","town":"成育一丁目","latitude":34.705373,"longitude":135.5418},{"prefecture":"大阪府","city":"大阪市城東区","town":"成育二丁目","latitude":34.709007,"longitude":135.54557},{"prefecture":"大阪府","city":"大阪市城東区","town":"成育三丁目","latitude":34.708248,"longitude":135.542904},{"prefecture":"大阪府","city":"大阪市城東区","town":"成育四丁目","latitude":34.711213,"longitude":135.543521},{"prefecture":"大阪府","city":"大阪市城東区","town":"成育五丁目","latitude":34.713594,"longitude":135.54471},{"prefecture":"大阪府","city":"大阪市城東区","town":"関目一丁目","latitude":34.707058,"longitude":135.548151},{"prefecture":"大阪府","city":"大阪市城東区","town":"関目二丁目","latitude":34.707311,"longitude":135.552067},{"prefecture":"大阪府","city":"大阪市城東区","town":"関目三丁目","latitude":34.710742,"longitude":135.548237},{"prefecture":"大阪府","city":"大阪市城東区","town":"関目四丁目","latitude":34.710579,"longitude":135.552183},{"prefecture":"大阪府","city":"大阪市城東区","town":"関目五丁目","latitude":34.713668,"longitude":135.548315},{"prefecture":"大阪府","city":"大阪市城東区","town":"関目六丁目","latitude":34.713474,"longitude":135.552269},{"prefecture":"大阪府","city":"大阪市城東区","town":"中央一丁目","latitude":34.701038,"longitude":135.543686},{"prefecture":"大阪府","city":"大阪市城東区","town":"中央二丁目","latitude":34.703562,"longitude":135.542652},{"prefecture":"大阪府","city":"大阪市城東区","town":"中央三丁目","latitude":34.703515,"longitude":135.54519},{"prefecture":"大阪府","city":"大阪市城東区","town":"天王田","latitude":34.689765,"longitude":135.552272},{"prefecture":"大阪府","city":"大阪市城東区","town":"中浜一丁目","latitude":34.687492,"longitude":135.543379},{"prefecture":"大阪府","city":"大阪市城東区","town":"中浜二丁目","latitude":34.685196,"longitude":135.543002},{"prefecture":"大阪府","city":"大阪市城東区","town":"中浜三丁目","latitude":34.683827,"longitude":135.542167},{"prefecture":"大阪府","city":"大阪市城東区","town":"永田一丁目","latitude":34.688945,"longitude":135.555892},{"prefecture":"大阪府","city":"大阪市城東区","town":"永田二丁目","latitude":34.685978,"longitude":135.556444},{"prefecture":"大阪府","city":"大阪市城東区","town":"永田三丁目","latitude":34.68281,"longitude":135.556125},{"prefecture":"大阪府","city":"大阪市城東区","town":"永田四丁目","latitude":34.680288,"longitude":135.556527},{"prefecture":"大阪府","city":"大阪市城東区","town":"野江一丁目","latitude":34.702031,"longitude":135.53894},{"prefecture":"大阪府","city":"大阪市城東区","town":"野江二丁目","latitude":34.704156,"longitude":135.538894},{"prefecture":"大阪府","city":"大阪市城東区","town":"野江三丁目","latitude":34.706928,"longitude":135.53888},{"prefecture":"大阪府","city":"大阪市城東区","town":"野江四丁目","latitude":34.709863,"longitude":135.540423},{"prefecture":"大阪府","city":"大阪市城東区","town":"放出西一丁目","latitude":34.693423,"longitude":135.55361},{"prefecture":"大阪府","city":"大阪市城東区","town":"放出西二丁目","latitude":34.693839,"longitude":135.556983},{"prefecture":"大阪府","city":"大阪市城東区","town":"放出西三丁目","latitude":34.690462,"longitude":135.556725},{"prefecture":"大阪府","city":"大阪市城東区","town":"東中浜一丁目","latitude":34.687311,"longitude":135.5471},{"prefecture":"大阪府","city":"大阪市城東区","town":"東中浜二丁目","latitude":34.685027,"longitude":135.546859},{"prefecture":"大阪府","city":"大阪市城東区","town":"東中浜三丁目","latitude":34.68266,"longitude":135.546491},{"prefecture":"大阪府","city":"大阪市城東区","town":"東中浜四丁目","latitude":34.687205,"longitude":135.55007},{"prefecture":"大阪府","city":"大阪市城東区","town":"東中浜五丁目","latitude":34.684968,"longitude":135.549894},{"prefecture":"大阪府","city":"大阪市城東区","town":"東中浜六丁目","latitude":34.682422,"longitude":135.549551},{"prefecture":"大阪府","city":"大阪市城東区","town":"東中浜七丁目","latitude":34.687006,"longitude":135.552705},{"prefecture":"大阪府","city":"大阪市城東区","town":"東中浜八丁目","latitude":34.684448,"longitude":135.552725},{"prefecture":"大阪府","city":"大阪市城東区","town":"東中浜九丁目","latitude":34.682163,"longitude":135.552348},{"prefecture":"大阪府","city":"大阪市城東区","town":"古市一丁目","latitude":34.70716,"longitude":135.557133},{"prefecture":"大阪府","city":"大阪市城東区","town":"古市二丁目","latitude":34.710444,"longitude":135.557271},{"prefecture":"大阪府","city":"大阪市城東区","town":"古市三丁目","latitude":34.713803,"longitude":135.557087},{"prefecture":"大阪府","city":"大阪市城東区","town":"森之宮一丁目","latitude":34.685682,"longitude":135.536209},{"prefecture":"大阪府","city":"大阪市城東区","town":"森之宮二丁目","latitude":34.685442,"longitude":135.539253},{"prefecture":"大阪府","city":"大阪市阿倍野区","town":"相生通一丁目","latitude":34.629479,"longitude":135.504985},{"prefecture":"大阪府","city":"大阪市阿倍野区","town":"相生通二丁目","latitude":34.630668,"longitude":135.502393},{"prefecture":"大阪府","city":"大阪市阿倍野区","town":"旭町一丁目","latitude":34.646284,"longitude":135.509179},{"prefecture":"大阪府","city":"大阪市阿倍野区","town":"旭町二丁目","latitude":34.644884,"longitude":135.509276},{"prefecture":"大阪府","city":"大阪市阿倍野区","town":"旭町三丁目","latitude":34.642948,"longitude":135.507991},{"prefecture":"大阪府","city":"大阪市阿倍野区","town":"阿倍野筋一丁目","latitude":34.645732,"longitude":135.51332},{"prefecture":"大阪府","city":"大阪市阿倍野区","town":"阿倍野筋二丁目","latitude":34.643354,"longitude":135.512713},{"prefecture":"大阪府","city":"大阪市阿倍野区","town":"阿倍野筋三丁目","latitude":34.64198,"longitude":135.510937},{"prefecture":"大阪府","city":"大阪市阿倍野区","town":"阿倍野筋四丁目","latitude":34.640314,"longitude":135.510449},{"prefecture":"大阪府","city":"大阪市阿倍野区","town":"阿倍野筋五丁目","latitude":34.637847,"longitude":135.511049},{"prefecture":"大阪府","city":"大阪市阿倍野区","town":"阿倍野元町","latitude":34.632328,"longitude":135.509101},{"prefecture":"大阪府","city":"大阪市阿倍野区","town":"王子町一丁目","latitude":34.635242,"longitude":135.511031},{"prefecture":"大阪府","city":"大阪市阿倍野区","town":"王子町二丁目","latitude":34.632466,"longitude":135.510723},{"prefecture":"大阪府","city":"大阪市阿倍野区","town":"王子町三丁目","latitude":34.629058,"longitude":135.510268},{"prefecture":"大阪府","city":"大阪市阿倍野区","town":"王子町四丁目","latitude":34.626386,"longitude":135.510488},{"prefecture":"大阪府","city":"大阪市阿倍野区","town":"北畠一丁目","latitude":34.626015,"longitude":135.506747},{"prefecture":"大阪府","city":"大阪市阿倍野区","town":"北畠二丁目","latitude":34.62751,"longitude":135.503535},{"prefecture":"大阪府","city":"大阪市阿倍野区","town":"北畠三丁目","latitude":34.628077,"longitude":135.500032},{"prefecture":"大阪府","city":"大阪市阿倍野区","town":"共立通一丁目","latitude":34.639155,"longitude":135.508327},{"prefecture":"大阪府","city":"大阪市阿倍野区","town":"共立通二丁目","latitude":34.63916,"longitude":135.505868},{"prefecture":"大阪府","city":"大阪市阿倍野区","town":"三明町一丁目","latitude":34.642162,"longitude":135.520598},{"prefecture":"大阪府","city":"大阪市阿倍野区","town":"三明町二丁目","latitude":34.640213,"longitude":135.520186},{"prefecture":"大阪府","city":"大阪市阿倍野区","town":"昭和町一丁目","latitude":34.63435,"longitude":135.518441},{"prefecture":"大阪府","city":"大阪市阿倍野区","town":"昭和町二丁目","latitude":34.631289,"longitude":135.518395},{"prefecture":"大阪府","city":"大阪市阿倍野区","town":"昭和町三丁目","latitude":34.628272,"longitude":135.517404},{"prefecture":"大阪府","city":"大阪市阿倍野区","town":"昭和町四丁目","latitude":34.62549,"longitude":135.517},{"prefecture":"大阪府","city":"大阪市阿倍野区","town":"昭和町五丁目","latitude":34.622968,"longitude":135.516328},{"prefecture":"大阪府","city":"大阪市阿倍野区","town":"晴明通","latitude":34.63268,"longitude":135.506453},{"prefecture":"大阪府","city":"大阪市阿倍野区","town":"帝塚山一丁目","latitude":34.625183,"longitude":135.499971},{"prefecture":"大阪府","city":"大阪市阿倍野区","town":"天王寺町北一丁目","latitude":34.645448,"longitude":135.521088},{"prefecture":"大阪府","city":"大阪市阿倍野区","town":"天王寺町北二丁目","latitude":34.646061,"longitude":135.524442},{"prefecture":"大阪府","city":"大阪市阿倍野区","town":"天王寺町北三丁目","latitude":34.644366,"longitude":135.527152},{"prefecture":"大阪府","city":"大阪市阿倍野区","town":"天王寺町南一丁目","latitude":34.643407,"longitude":135.521006},{"prefecture":"大阪府","city":"大阪市阿倍野区","town":"天王寺町南二丁目","latitude":34.642781,"longitude":135.524089},{"prefecture":"大阪府","city":"大阪市阿倍野区","town":"天王寺町南三丁目","latitude":34.640738,"longitude":135.526152},{"prefecture":"大阪府","city":"大阪市阿倍野区","town":"長池町","latitude":34.623819,"longitude":135.518951},{"prefecture":"大阪府","city":"大阪市阿倍野区","town":"西田辺町一丁目","latitude":34.619937,"longitude":135.515977},{"prefecture":"大阪府","city":"大阪市阿倍野区","town":"西田辺町二丁目","latitude":34.617397,"longitude":135.515103},{"prefecture":"大阪府","city":"大阪市阿倍野区","town":"橋本町","latitude":34.633093,"longitude":135.502769},{"prefecture":"大阪府","city":"大阪市阿倍野区","town":"播磨町一丁目","latitude":34.623487,"longitude":135.509699},{"prefecture":"大阪府","city":"大阪市阿倍野区","town":"播磨町二丁目","latitude":34.620587,"longitude":135.509931},{"prefecture":"大阪府","city":"大阪市阿倍野区","town":"播磨町三丁目","latitude":34.618055,"longitude":135.509761},{"prefecture":"大阪府","city":"大阪市阿倍野区","town":"阪南町一丁目","latitude":34.636529,"longitude":135.514886},{"prefecture":"大阪府","city":"大阪市阿倍野区","town":"阪南町二丁目","latitude":34.631812,"longitude":135.514052},{"prefecture":"大阪府","city":"大阪市阿倍野区","town":"阪南町三丁目","latitude":34.628712,"longitude":135.513613},{"prefecture":"大阪府","city":"大阪市阿倍野区","town":"阪南町四丁目","latitude":34.625787,"longitude":135.513793},{"prefecture":"大阪府","city":"大阪市阿倍野区","town":"阪南町五丁目","latitude":34.623045,"longitude":135.5134},{"prefecture":"大阪府","city":"大阪市阿倍野区","town":"阪南町六丁目","latitude":34.620338,"longitude":135.512357},{"prefecture":"大阪府","city":"大阪市阿倍野区","town":"阪南町七丁目","latitude":34.617837,"longitude":135.512037},{"prefecture":"大阪府","city":"大阪市阿倍野区","town":"万代一丁目","latitude":34.623533,"longitude":135.506223},{"prefecture":"大阪府","city":"大阪市阿倍野区","town":"美章園一丁目","latitude":34.639652,"longitude":135.522761},{"prefecture":"大阪府","city":"大阪市阿倍野区","town":"美章園二丁目","latitude":34.639484,"longitude":135.524864},{"prefecture":"大阪府","city":"大阪市阿倍野区","town":"美章園三丁目","latitude":34.63765,"longitude":135.522732},{"prefecture":"大阪府","city":"大阪市阿倍野区","town":"文の里一丁目","latitude":34.638216,"longitude":135.519539},{"prefecture":"大阪府","city":"大阪市阿倍野区","town":"文の里二丁目","latitude":34.635954,"longitude":135.519468},{"prefecture":"大阪府","city":"大阪市阿倍野区","town":"文の里三丁目","latitude":34.636411,"longitude":135.522394},{"prefecture":"大阪府","city":"大阪市阿倍野区","town":"文の里四丁目","latitude":34.632756,"longitude":135.522665},{"prefecture":"大阪府","city":"大阪市阿倍野区","town":"松崎町一丁目","latitude":34.645007,"longitude":135.517672},{"prefecture":"大阪府","city":"大阪市阿倍野区","town":"松崎町二丁目","latitude":34.643655,"longitude":135.516666},{"prefecture":"大阪府","city":"大阪市阿倍野区","town":"松崎町三丁目","latitude":34.641021,"longitude":135.516111},{"prefecture":"大阪府","city":"大阪市阿倍野区","town":"松崎町四丁目","latitude":34.638546,"longitude":135.516904},{"prefecture":"大阪府","city":"大阪市阿倍野区","town":"松虫通一丁目","latitude":34.63504,"longitude":135.508792},{"prefecture":"大阪府","city":"大阪市阿倍野区","town":"松虫通二丁目","latitude":34.635456,"longitude":135.506589},{"prefecture":"大阪府","city":"大阪市阿倍野区","town":"松虫通三丁目","latitude":34.635478,"longitude":135.50395},{"prefecture":"大阪府","city":"大阪市阿倍野区","town":"丸山通一丁目","latitude":34.637053,"longitude":135.508321},{"prefecture":"大阪府","city":"大阪市阿倍野区","town":"丸山通二丁目","latitude":34.637216,"longitude":135.50498},{"prefecture":"大阪府","city":"大阪市阿倍野区","town":"桃ケ池町一丁目","latitude":34.630428,"longitude":135.521567},{"prefecture":"大阪府","city":"大阪市阿倍野区","town":"桃ケ池町二丁目","latitude":34.627543,"longitude":135.520404},{"prefecture":"大阪府","city":"大阪市住吉区","town":"浅香一丁目","latitude":34.591243,"longitude":135.510936},{"prefecture":"大阪府","city":"大阪市住吉区","town":"浅香二丁目","latitude":34.589403,"longitude":135.507713},{"prefecture":"大阪府","city":"大阪市住吉区","town":"我孫子一丁目","latitude":34.605147,"longitude":135.510159},{"prefecture":"大阪府","city":"大阪市住吉区","town":"我孫子二丁目","latitude":34.602865,"longitude":135.509289},{"prefecture":"大阪府","city":"大阪市住吉区","town":"我孫子三丁目","latitude":34.60159,"longitude":135.508664},{"prefecture":"大阪府","city":"大阪市住吉区","town":"我孫子四丁目","latitude":34.598524,"longitude":135.509128},{"prefecture":"大阪府","city":"大阪市住吉区","town":"我孫子五丁目","latitude":34.599041,"longitude":135.506146},{"prefecture":"大阪府","city":"大阪市住吉区","town":"我孫子西一丁目","latitude":34.604995,"longitude":135.507329},{"prefecture":"大阪府","city":"大阪市住吉区","town":"我孫子西二丁目","latitude":34.602433,"longitude":135.505753},{"prefecture":"大阪府","city":"大阪市住吉区","town":"我孫子東一丁目","latitude":34.604002,"longitude":135.512125},{"prefecture":"大阪府","city":"大阪市住吉区","town":"我孫子東二丁目","latitude":34.599879,"longitude":135.511752},{"prefecture":"大阪府","city":"大阪市住吉区","town":"我孫子東三丁目","latitude":34.595878,"longitude":135.511368},{"prefecture":"大阪府","city":"大阪市住吉区","town":"上住吉一丁目","latitude":34.610578,"longitude":135.499012},{"prefecture":"大阪府","city":"大阪市住吉区","town":"上住吉二丁目","latitude":34.610886,"longitude":135.495844},{"prefecture":"大阪府","city":"大阪市住吉区","town":"遠里小野一丁目","latitude":34.599821,"longitude":135.498404},{"prefecture":"大阪府","city":"大阪市住吉区","town":"遠里小野二丁目","latitude":34.596727,"longitude":135.497702},{"prefecture":"大阪府","city":"大阪市住吉区","town":"遠里小野三丁目","latitude":34.59375,"longitude":135.498088},{"prefecture":"大阪府","city":"大阪市住吉区","town":"遠里小野四丁目","latitude":34.602314,"longitude":135.495963},{"prefecture":"大阪府","city":"大阪市住吉区","town":"遠里小野五丁目","latitude":34.599929,"longitude":135.49456},{"prefecture":"大阪府","city":"大阪市住吉区","town":"遠里小野六丁目","latitude":34.596727,"longitude":135.494347},{"prefecture":"大阪府","city":"大阪市住吉区","town":"遠里小野七丁目","latitude":34.596886,"longitude":135.492092},{"prefecture":"大阪府","city":"大阪市住吉区","town":"苅田一丁目","latitude":34.603915,"longitude":135.520717},{"prefecture":"大阪府","city":"大阪市住吉区","town":"苅田十丁目","latitude":34.592731,"longitude":135.514572},{"prefecture":"大阪府","city":"大阪市住吉区","town":"苅田二丁目","latitude":34.604203,"longitude":135.515939},{"prefecture":"大阪府","city":"大阪市住吉区","town":"苅田三丁目","latitude":34.602423,"longitude":135.515833},{"prefecture":"大阪府","city":"大阪市住吉区","town":"苅田四丁目","latitude":34.600892,"longitude":135.520788},{"prefecture":"大阪府","city":"大阪市住吉区","town":"苅田五丁目","latitude":34.600505,"longitude":135.515746},{"prefecture":"大阪府","city":"大阪市住吉区","town":"苅田六丁目","latitude":34.598885,"longitude":135.52011},{"prefecture":"大阪府","city":"大阪市住吉区","town":"苅田七丁目","latitude":34.598862,"longitude":135.515034},{"prefecture":"大阪府","city":"大阪市住吉区","town":"苅田八丁目","latitude":34.597365,"longitude":135.519695},{"prefecture":"大阪府","city":"大阪市住吉区","town":"苅田九丁目","latitude":34.596443,"longitude":135.514337},{"prefecture":"大阪府","city":"大阪市住吉区","town":"沢之町一丁目","latitude":34.604466,"longitude":135.498434},{"prefecture":"大阪府","city":"大阪市住吉区","town":"沢之町二丁目","latitude":34.602247,"longitude":135.498445},{"prefecture":"大阪府","city":"大阪市住吉区","town":"清水丘一丁目","latitude":34.604828,"longitude":135.492362},{"prefecture":"大阪府","city":"大阪市住吉区","town":"清水丘二丁目","latitude":34.601608,"longitude":135.491565},{"prefecture":"大阪府","city":"大阪市住吉区","town":"清水丘三丁目","latitude":34.598081,"longitude":135.489702},{"prefecture":"大阪府","city":"大阪市住吉区","town":"杉本一丁目","latitude":34.595393,"longitude":135.509069},{"prefecture":"大阪府","city":"大阪市住吉区","town":"杉本二丁目","latitude":34.595743,"longitude":135.505744},{"prefecture":"大阪府","city":"大阪市住吉区","town":"杉本三丁目","latitude":34.590242,"longitude":135.504515},{"prefecture":"大阪府","city":"大阪市住吉区","town":"墨江一丁目","latitude":34.6099,"longitude":135.493381},{"prefecture":"大阪府","city":"大阪市住吉区","town":"墨江二丁目","latitude":34.608109,"longitude":135.495217},{"prefecture":"大阪府","city":"大阪市住吉区","town":"墨江三丁目","latitude":34.607767,"longitude":135.492003},{"prefecture":"大阪府","city":"大阪市住吉区","town":"墨江四丁目","latitude":34.604875,"longitude":135.495935},{"prefecture":"大阪府","city":"大阪市住吉区","town":"住吉一丁目","latitude":34.613916,"longitude":135.496317},{"prefecture":"大阪府","city":"大阪市住吉区","town":"住吉二丁目","latitude":34.613129,"longitude":135.493078},{"prefecture":"大阪府","city":"大阪市住吉区","town":"千躰一丁目","latitude":34.608092,"longitude":135.500391},{"prefecture":"大阪府","city":"大阪市住吉区","town":"千躰二丁目","latitude":34.608201,"longitude":135.498243},{"prefecture":"大阪府","city":"大阪市住吉区","town":"大領一丁目","latitude":34.619985,"longitude":135.508079},{"prefecture":"大阪府","city":"大阪市住吉区","town":"大領二丁目","latitude":34.617805,"longitude":135.507486},{"prefecture":"大阪府","city":"大阪市住吉区","town":"大領三丁目","latitude":34.615894,"longitude":135.506781},{"prefecture":"大阪府","city":"大阪市住吉区","town":"大領四丁目","latitude":34.613787,"longitude":135.506187},{"prefecture":"大阪府","city":"大阪市住吉区","town":"大領五丁目","latitude":34.612256,"longitude":135.505297},{"prefecture":"大阪府","city":"大阪市住吉区","town":"帝塚山中一丁目","latitude":34.623763,"longitude":135.500729},{"prefecture":"大阪府","city":"大阪市住吉区","town":"帝塚山中二丁目","latitude":34.622652,"longitude":135.500283},{"prefecture":"大阪府","city":"大阪市住吉区","town":"帝塚山中三丁目","latitude":34.62093,"longitude":135.499568},{"prefecture":"大阪府","city":"大阪市住吉区","town":"帝塚山中四丁目","latitude":34.61889,"longitude":135.498743},{"prefecture":"大阪府","city":"大阪市住吉区","town":"帝塚山中五丁目","latitude":34.617166,"longitude":135.498103},{"prefecture":"大阪府","city":"大阪市住吉区","town":"帝塚山西一丁目","latitude":34.62295,"longitude":135.49719},{"prefecture":"大阪府","city":"大阪市住吉区","town":"帝塚山西二丁目","latitude":34.620776,"longitude":135.49657},{"prefecture":"大阪府","city":"大阪市住吉区","town":"帝塚山西三丁目","latitude":34.619245,"longitude":135.496238},{"prefecture":"大阪府","city":"大阪市住吉区","town":"帝塚山西四丁目","latitude":34.617474,"longitude":135.49575},{"prefecture":"大阪府","city":"大阪市住吉区","town":"帝塚山東一丁目","latitude":34.622544,"longitude":135.503057},{"prefecture":"大阪府","city":"大阪市住吉区","town":"帝塚山東二丁目","latitude":34.62064,"longitude":135.501943},{"prefecture":"大阪府","city":"大阪市住吉区","town":"帝塚山東三丁目","latitude":34.618447,"longitude":135.500464},{"prefecture":"大阪府","city":"大阪市住吉区","town":"帝塚山東四丁目","latitude":34.616675,"longitude":135.499482},{"prefecture":"大阪府","city":"大阪市住吉区","town":"帝塚山東五丁目","latitude":34.613824,"longitude":135.498238},{"prefecture":"大阪府","city":"大阪市住吉区","town":"殿辻一丁目","latitude":34.606102,"longitude":135.49986},{"prefecture":"大阪府","city":"大阪市住吉区","town":"殿辻二丁目","latitude":34.606365,"longitude":135.497676},{"prefecture":"大阪府","city":"大阪市住吉区","town":"長居一丁目","latitude":34.615044,"longitude":135.512933},{"prefecture":"大阪府","city":"大阪市住吉区","town":"長居二丁目","latitude":34.612825,"longitude":135.512005},{"prefecture":"大阪府","city":"大阪市住吉区","town":"長居三丁目","latitude":34.610643,"longitude":135.511322},{"prefecture":"大阪府","city":"大阪市住吉区","town":"長居四丁目","latitude":34.607572,"longitude":135.509589},{"prefecture":"大阪府","city":"大阪市住吉区","town":"長居西一丁目","latitude":34.614307,"longitude":135.509256},{"prefecture":"大阪府","city":"大阪市住吉区","town":"長居西二丁目","latitude":34.610696,"longitude":135.509054},{"prefecture":"大阪府","city":"大阪市住吉区","town":"長居西三丁目","latitude":34.607802,"longitude":135.507688},{"prefecture":"大阪府","city":"大阪市住吉区","town":"長居東一丁目","latitude":34.607302,"longitude":135.521513},{"prefecture":"大阪府","city":"大阪市住吉区","town":"長居東二丁目","latitude":34.607279,"longitude":135.518678},{"prefecture":"大阪府","city":"大阪市住吉区","town":"長居東三丁目","latitude":34.607293,"longitude":135.515487},{"prefecture":"大阪府","city":"大阪市住吉区","town":"長居東四丁目","latitude":34.609816,"longitude":135.512999},{"prefecture":"大阪府","city":"大阪市住吉区","town":"長峡町","latitude":34.612171,"longitude":135.490499},{"prefecture":"大阪府","city":"大阪市住吉区","town":"庭井一丁目","latitude":34.595487,"longitude":135.521247},{"prefecture":"大阪府","city":"大阪市住吉区","town":"庭井二丁目","latitude":34.594355,"longitude":135.517582},{"prefecture":"大阪府","city":"大阪市住吉区","town":"万代二丁目","latitude":34.62201,"longitude":135.505388},{"prefecture":"大阪府","city":"大阪市住吉区","town":"万代三丁目","latitude":34.619915,"longitude":135.503301},{"prefecture":"大阪府","city":"大阪市住吉区","town":"万代四丁目","latitude":34.617447,"longitude":135.502607},{"prefecture":"大阪府","city":"大阪市住吉区","town":"万代五丁目","latitude":34.615707,"longitude":135.501574},{"prefecture":"大阪府","city":"大阪市住吉区","town":"万代六丁目","latitude":34.613607,"longitude":135.500469},{"prefecture":"大阪府","city":"大阪市住吉区","town":"万代東一丁目","latitude":34.621033,"longitude":135.507273},{"prefecture":"大阪府","city":"大阪市住吉区","town":"万代東二丁目","latitude":34.618637,"longitude":135.505851},{"prefecture":"大阪府","city":"大阪市住吉区","town":"万代東三丁目","latitude":34.615775,"longitude":135.504147},{"prefecture":"大阪府","city":"大阪市住吉区","town":"万代東四丁目","latitude":34.613084,"longitude":135.502683},{"prefecture":"大阪府","city":"大阪市住吉区","town":"東粉浜一丁目","latitude":34.622294,"longitude":135.493983},{"prefecture":"大阪府","city":"大阪市住吉区","town":"東粉浜二丁目","latitude":34.61985,"longitude":135.493403},{"prefecture":"大阪府","city":"大阪市住吉区","town":"東粉浜三丁目","latitude":34.61602,"longitude":135.492302},{"prefecture":"大阪府","city":"大阪市住吉区","town":"南住吉一丁目","latitude":34.61061,"longitude":135.504125},{"prefecture":"大阪府","city":"大阪市住吉区","town":"南住吉二丁目","latitude":34.608027,"longitude":135.504084},{"prefecture":"大阪府","city":"大阪市住吉区","town":"南住吉三丁目","latitude":34.605065,"longitude":135.502776},{"prefecture":"大阪府","city":"大阪市住吉区","town":"南住吉四丁目","latitude":34.602249,"longitude":135.502182},{"prefecture":"大阪府","city":"大阪市住吉区","town":"山之内一丁目","latitude":34.599943,"longitude":135.502555},{"prefecture":"大阪府","city":"大阪市住吉区","town":"山之内二丁目","latitude":34.596847,"longitude":135.50163},{"prefecture":"大阪府","city":"大阪市住吉区","town":"山之内三丁目","latitude":34.593749,"longitude":135.501415},{"prefecture":"大阪府","city":"大阪市住吉区","town":"山之内四丁目","latitude":34.590076,"longitude":135.5017},{"prefecture":"大阪府","city":"大阪市住吉区","town":"山之内五丁目","latitude":34.589266,"longitude":135.499606},{"prefecture":"大阪府","city":"大阪市住吉区","town":"山之内元町","latitude":34.597062,"longitude":135.504515},{"prefecture":"大阪府","city":"大阪市東住吉区","town":"今川一丁目","latitude":34.630809,"longitude":135.536138},{"prefecture":"大阪府","city":"大阪市東住吉区","town":"今川二丁目","latitude":34.630424,"longitude":135.539572},{"prefecture":"大阪府","city":"大阪市東住吉区","town":"今川三丁目","latitude":34.630361,"longitude":135.542236},{"prefecture":"大阪府","city":"大阪市東住吉区","town":"今川四丁目","latitude":34.628377,"longitude":135.536135},{"prefecture":"大阪府","city":"大阪市東住吉区","town":"今川五丁目","latitude":34.627956,"longitude":135.53949},{"prefecture":"大阪府","city":"大阪市東住吉区","town":"今川六丁目","latitude":34.627889,"longitude":135.542147},{"prefecture":"大阪府","city":"大阪市東住吉区","town":"今川七丁目","latitude":34.62503,"longitude":135.536709},{"prefecture":"大阪府","city":"大阪市東住吉区","town":"今川八丁目","latitude":34.625202,"longitude":135.539543},{"prefecture":"大阪府","city":"大阪市東住吉区","town":"今林一丁目","latitude":34.640327,"longitude":135.541033},{"prefecture":"大阪府","city":"大阪市東住吉区","town":"今林二丁目","latitude":34.638315,"longitude":135.542863},{"prefecture":"大阪府","city":"大阪市東住吉区","town":"今林三丁目","latitude":34.636198,"longitude":135.542177},{"prefecture":"大阪府","city":"大阪市東住吉区","town":"今林四丁目","latitude":34.636227,"longitude":135.545747},{"prefecture":"大阪府","city":"大阪市東住吉区","town":"北田辺一丁目","latitude":34.636234,"longitude":135.524917},{"prefecture":"大阪府","city":"大阪市東住吉区","town":"北田辺二丁目","latitude":34.636867,"longitude":135.526465},{"prefecture":"大阪府","city":"大阪市東住吉区","town":"北田辺三丁目","latitude":34.633203,"longitude":135.524872},